{
"type": "FeatureCollection",
"name": "Schools_(points)",
"crs": { "type": "name", "properties": { "name": "urn:ogc:def:crs:OGC:1.3:CRS84" } },
"features": [
{ "type": "Feature", "properties": { "objectid": 1, "school_num": 5301, "school": "ALBEMARLE ROAD", "school_typ": "MIDDLE", "address": "6900 Democracy Drive", "city": "Charlotte", "zipcode": 28212, "magnet": "Partial", "grdlevl": "6-8", "x": 1483401.99457209, "y": 531780.99568598007, "mag_focus": "International Baccalaureate", "schl_stat": "Current" }, "geometry": { "type": "Point", "coordinates": [ -80.729363437208661, 35.198809973588745 ] } },
{ "type": "Feature", "properties": { "objectid": 2, "school_num": 4300, "school": "ALBEMARLE ROAD", "school_typ": "ELEMENTARY", "address": "7800 Riding Trail Road", "city": "Charlotte", "zipcode": 28212, "magnet": "Non Magnet", "grdlevl": "K-5", "x": 1483354.9959784199, "y": 531183.99917655997, "mag_focus": null, "schl_stat": "Current" }, "geometry": { "type": "Point", "coordinates": [ -80.729485923181656, 35.197167616381499 ] } },
{ "type": "Feature", "properties": { "objectid": 3, "school_num": 5399, "school": "ALEXANDER GRAHAM", "school_typ": "MIDDLE", "address": "1800 Runnymede Lane", "city": "Charlotte", "zipcode": 28211, "magnet": "Non Magnet", "grdlevl": "6-8", "x": 1452254.00043775, "y": 520695.99751481001, "mag_focus": null, "schl_stat": "Current" }, "geometry": { "type": "Point", "coordinates": [ -80.832926177788664, 35.166821237320733 ] } },
{ "type": "Feature", "properties": { "objectid": 4, "school_num": 4308, "school": "ALLENBROOK", "school_typ": "ELEMENTARY", "address": "1430 Allenbrook Drive", "city": "Charlotte", "zipcode": 28208, "magnet": "Non Magnet", "grdlevl": "K-5", "x": 1428362.00163391, "y": 555687.99806874001, "mag_focus": null, "schl_stat": "Current" }, "geometry": { "type": "Point", "coordinates": [ -80.915115310158797, 35.261711532371379 ] } },
{ "type": "Feature", "properties": { "objectid": 5, "school_num": 7302, "school": "ARDREY KELL", "school_typ": "HIGH", "address": "10220 Ardrey Kell Road", "city": "Charlotte", "zipcode": 28277, "magnet": "Non Magnet", "grdlevl": "9-12", "x": 1453101.0000560901, "y": 470752.99766348, "mag_focus": null, "schl_stat": "Current" }, "geometry": { "type": "Point", "coordinates": [ -80.827017009503862, 35.029658176709972 ] } },
{ "type": "Feature", "properties": { "objectid": 6, "school_num": 4311, "school": "ASHLEY PARK PRE K-8", "school_typ": "MIDDLE", "address": "2401 Belfast Drive", "city": "Charlotte", "zipcode": 28208, "magnet": "Non Magnet", "grdlevl": "6-8", "x": 1435293.0061445802, "y": 545021.99512256996, "mag_focus": null, "schl_stat": "Current" }, "geometry": { "type": "Point", "coordinates": [ -80.89121989563543, 35.232775444002677 ] } },
{ "type": "Feature", "properties": { "objectid": 7, "school_num": 4311, "school": "ASHLEY PARK PRE K-8", "school_typ": "ELEMENTARY", "address": "2401 Belfast Drive", "city": "Charlotte", "zipcode": 28208, "magnet": "Non Magnet", "grdlevl": "PreK-5", "x": 1435293.0061445802, "y": 545021.99512256996, "mag_focus": null, "schl_stat": "Current" }, "geometry": { "type": "Point", "coordinates": [ -80.89121989563543, 35.232775444002677 ] } },
{ "type": "Feature", "properties": { "objectid": 8, "school_num": 5313, "school": "BAILEY", "school_typ": "MIDDLE", "address": "11900 Bailey Road", "city": "Cornelius", "zipcode": 28031, "magnet": "Non Magnet", "grdlevl": "6-8", "x": 1452909.00044008, "y": 630182.99310731993, "mag_focus": null, "schl_stat": "Current" }, "geometry": { "type": "Point", "coordinates": [ -80.837515804948993, 35.46763218396427 ] } },
{ "type": "Feature", "properties": { "objectid": 9, "school_num": 4314, "school": "BAIN", "school_typ": "ELEMENTARY", "address": "11540 Bain School Road", "city": "Charlotte", "zipcode": 28227, "magnet": "Non Magnet", "grdlevl": "K-5", "x": 1507069.9987451602, "y": 522082.99506888998, "mag_focus": null, "schl_stat": "Current" }, "geometry": { "type": "Point", "coordinates": [ -80.649608059048916, 35.173273499311179 ] } },
{ "type": "Feature", "properties": { "objectid": 10, "school_num": 4437, "school": "BALLANTYNE", "school_typ": "ELEMENTARY", "address": "15425 Scholastic Drive", "city": "Charlotte", "zipcode": 28277, "magnet": "Non Magnet", "grdlevl": "K-5", "x": 1444457.9999536599, "y": 473699.99800307001, "mag_focus": null, "schl_stat": "Current" }, "geometry": { "type": "Point", "coordinates": [ -80.856067879444268, 35.037313835443669 ] } },
{ "type": "Feature", "properties": { "objectid": 11, "school_num": 4328, "school": "BARNETTE", "school_typ": "ELEMENTARY", "address": "13659 Beatties Ford Road", "city": "Huntersville", "zipcode": 28078, "magnet": "Non Magnet", "grdlevl": "K-5", "x": 1426380.0033013399, "y": 605919.99537356, "mag_focus": null, "schl_stat": "Current" }, "geometry": { "type": "Point", "coordinates": [ -80.925016767821219, 35.399598804955836 ] } },
{ "type": "Feature", "properties": { "objectid": 12, "school_num": 4316, "school": "CHARLES H PARKER ACADEMIC CENTER", "school_typ": "ELEMENTARY", "address": "1546 Walton Road", "city": "Charlotte", "zipcode": 28208, "magnet": "Partial", "grdlevl": "K-5", "x": 1435610.00715099, "y": 537408.99952180998, "mag_focus": "Learning Immersion & Talent Development", "schl_stat": "Current" }, "geometry": { "type": "Point", "coordinates": [ -80.889673231361868, 35.211877810902507 ] } },
{ "type": "Feature", "properties": { "objectid": 13, "school_num": 4369, "school": "BEREWICK", "school_typ": "ELEMENTARY", "address": "5910 Dixie River Road", "city": "Charlotte", "zipcode": 28278, "magnet": "Non Magnet", "grdlevl": "K-5", "x": 1408532.0022519999, "y": 524108.99889088998, "mag_focus": null, "schl_stat": "Current" }, "geometry": { "type": "Point", "coordinates": [ -80.979423543611986, 35.173890718184083 ] } },
{ "type": "Feature", "properties": { "objectid": 14, "school_num": 4319, "school": "BERRYHILL", "school_typ": "MIDDLE", "address": "10501 Windy Grove Road", "city": "Charlotte", "zipcode": 28278, "magnet": "Non Magnet", "grdlevl": "6-8", "x": 1405506.0010861598, "y": 538408.99719372008, "mag_focus": null, "schl_stat": "Current" }, "geometry": { "type": "Point", "coordinates": [ -80.990507191906005, 35.213008493281862 ] } },
{ "type": "Feature", "properties": { "objectid": 15, "school_num": 4319, "school": "BERRYHILL", "school_typ": "ELEMENTARY", "address": "10501 Windy Grove Road", "city": "Charlotte", "zipcode": 28208, "magnet": "Non Magnet", "grdlevl": "K-5", "x": 1405506.0010861598, "y": 538408.99719372008, "mag_focus": null, "schl_stat": "Current" }, "geometry": { "type": "Point", "coordinates": [ -80.990507191906005, 35.213008493281862 ] } },
{ "type": "Feature", "properties": { "objectid": 16, "school_num": 4322, "school": "BEVERLY WOODS", "school_typ": "ELEMENTARY", "address": "6001 Quail Hollow Road", "city": "Charlotte", "zipcode": 28210, "magnet": "Non Magnet", "grdlevl": "K-5", "x": 1450743.0067405901, "y": 507805.99737622996, "mag_focus": null, "schl_stat": "Current" }, "geometry": { "type": "Point", "coordinates": [ -80.837183082534565, 35.131332680913061 ] } },
{ "type": "Feature", "properties": { "objectid": 17, "school_num": 4335, "school": "BILLINGSVILLE", "school_typ": "ELEMENTARY", "address": "124 Skyland Avenue", "city": "Charlotte", "zipcode": 28205, "magnet": "Partial", "grdlevl": "K-2", "x": 1459438.00148967, "y": 531341.99361123005, "mag_focus": "International Baccalaureate", "schl_stat": "Current" }, "geometry": { "type": "Point", "coordinates": [ -80.809541011645649, 35.19643031878352 ] } },
{ "type": "Feature", "properties": { "objectid": 18, "school_num": 4442, "school": "BLYTHE", "school_typ": "ELEMENTARY", "address": "12202 Hambright Road", "city": "Huntersville", "zipcode": 28078, "magnet": "Partial", "grdlevl": "K-5", "x": 1452971.9999859899, "y": 596980.99881588994, "mag_focus": "International Baccalaureate", "schl_stat": "Current" }, "geometry": { "type": "Point", "coordinates": [ -80.835242864506682, 35.376426233807351 ] } },
{ "type": "Feature", "properties": { "objectid": 19, "school_num": 4329, "school": "BRIARWOOD ACADEMY", "school_typ": "ELEMENTARY", "address": "1001 Wilann Drive", "city": "Charlotte", "zipcode": 28215, "magnet": "Non Magnet", "grdlevl": "K-5", "x": 1472935.9954909999, "y": 551268.99772038998, "mag_focus": null, "schl_stat": "Current" }, "geometry": { "type": "Point", "coordinates": [ -80.76555220692812, 35.251842094967444 ] } },
{ "type": "Feature", "properties": { "objectid": 20, "school_num": 7361, "school": "BUTLER", "school_typ": "HIGH", "address": "1810 Matthews-Mint Hill Rd", "city": "Matthews", "zipcode": 28105, "magnet": "Non Magnet", "grdlevl": "9-12", "x": 1494309.99637808, "y": 503109.99528531998, "mag_focus": null, "schl_stat": "Current" }, "geometry": { "type": "Point", "coordinates": [ -80.691220025523265, 35.120558799255548 ] } },
{ "type": "Feature", "properties": { "objectid": 21, "school_num": 5333, "school": "CARMEL", "school_typ": "MIDDLE", "address": "5001 Camilla Drive", "city": "Charlotte", "zipcode": 28226, "magnet": "Non Magnet", "grdlevl": "6-8", "x": 1460485.00464501, "y": 506719.99987631, "mag_focus": null, "schl_stat": "Current" }, "geometry": { "type": "Point", "coordinates": [ -80.804538812463335, 35.128840146392591 ] } },
{ "type": "Feature", "properties": { "objectid": 22, "school_num": 4336, "school": "CHANTILLY MONTESSORI", "school_typ": "ELEMENTARY", "address": "701 Briar Creek Road", "city": "Charlotte", "zipcode": 28205, "magnet": "Full", "grdlevl": "PreK-6", "x": 1462207.9979181602, "y": 535426.99364331004, "mag_focus": "Montessori", "schl_stat": "Current" }, "geometry": { "type": "Point", "coordinates": [ -80.800518447741467, 35.207791121458641 ] } },
{ "type": "Feature", "properties": { "objectid": 23, "school_num": 4338, "school": "CLEAR CREEK", "school_typ": "ELEMENTARY", "address": "13501 Albemarle Road", "city": "Charlotte", "zipcode": 28227, "magnet": "Non Magnet", "grdlevl": "K-5", "x": 1514644.9980308299, "y": 540313.99764881004, "mag_focus": null, "schl_stat": "Current" }, "geometry": { "type": "Point", "coordinates": [ -80.625261437663269, 35.223702976286155 ] } },
{ "type": "Feature", "properties": { "objectid": 24, "school_num": 7567, "school": "CHARLOTTE ENGINEERING EARLY COLLEGE", "school_typ": "HIGH", "address": "9000 Robert D. Snyder Road", "city": "Charlotte", "zipcode": 28262, "magnet": "School Option", "grdlevl": "9-13", "x": 1479717.9927537402, "y": 571907.99285965005, "mag_focus": "Early & Middle Colleges", "schl_stat": "Current" }, "geometry": { "type": "Point", "coordinates": [ -80.744053208331323, 35.308871256877055 ] } },
{ "type": "Feature", "properties": { "objectid": 25, "school_num": 7334, "school": "CATO MIDDLE COLLEGE", "school_typ": "HIGH", "address": "8120 Grier Road", "city": "Charlotte", "zipcode": 28215, "magnet": "School Option", "grdlevl": "11-13", "x": 1483269.99385183, "y": 555791.99457990006, "mag_focus": "Early & Middle Colleges", "schl_stat": "Current" }, "geometry": { "type": "Point", "coordinates": [ -80.731206850652057, 35.264767869452143 ] } },
{ "type": "Feature", "properties": { "objectid": 26, "school_num": 7496, "school": "PHILLIP O. BERRY ACADEMY OF TECHNOLOGY", "school_typ": "HIGH", "address": "1430 Alleghany Street", "city": "Charlotte", "zipcode": 28208, "magnet": "Full", "grdlevl": "9-12", "x": 1435186.0011092399, "y": 547310.99480963999, "mag_focus": "STEM", "schl_stat": "Current" }, "geometry": { "type": "Point", "coordinates": [ -80.891724237878975, 35.239058106613093 ] } },
{ "type": "Feature", "properties": { "objectid": 27, "school_num": 4489, "school": "BRUNS AVENUE", "school_typ": "ELEMENTARY", "address": "501 South Bruns Avenue", "city": "Charlotte", "zipcode": 28208, "magnet": "Partial", "grdlevl": "K-5", "x": 1443238.0063306701, "y": 547107.99751222006, "mag_focus": "Environmental Sustainability", "schl_stat": "Current" }, "geometry": { "type": "Point", "coordinates": [ -80.865828246844984, 35.238695387857746 ] } },
{ "type": "Feature", "properties": { "objectid": 28, "school_num": 5341, "school": "COCHRANE COLLEGIATE ACADEMY", "school_typ": "MIDDLE", "address": "6200 Starhaven Drive", "city": "Charlotte", "zipcode": 28215, "magnet": "Non Magnet", "grdlevl": "6-8", "x": 1477458.9923505001, "y": 549224.99754331005, "mag_focus": "<Null>", "schl_stat": "Current" }, "geometry": { "type": "Point", "coordinates": [ -80.750283597377404, 35.246446821226222 ] } },
{ "type": "Feature", "properties": { "objectid": 29, "school_num": 4344, "school": "COLLINSWOOD LANGUAGE ACADEMY", "school_typ": "MIDDLE", "address": "5621 Flagstaff Drive", "city": "Charlotte", "zipcode": 28210, "magnet": "Full", "grdlevl": "6-8", "x": 1440876.00678958, "y": 527456.99744423002, "mag_focus": "World Languages", "schl_stat": "Current" }, "geometry": { "type": "Point", "coordinates": [ -80.870914500006094, 35.161395375081476 ] } },
{ "type": "Feature", "properties": { "objectid": 30, "school_num": 4344, "school": "COLLINSWOOD LANGUAGE ACADEMY", "school_typ": "ELEMENTARY", "address": "5621 Flagstaff Drive", "city": "Charlotte", "zipcode": 28210, "magnet": "Full", "grdlevl": "K-5", "x": 1440876.00678958, "y": 527456.99744423002, "mag_focus": "World Languages", "schl_stat": "Current" }, "geometry": { "type": "Point", "coordinates": [ -80.870914500006094, 35.161395375081476 ] } },
{ "type": "Feature", "properties": { "objectid": 31, "school_num": 5345, "school": "COMMUNITY HOUSE", "school_typ": "MIDDLE", "address": "9500 Community House Road", "city": "Charlotte", "zipcode": 28277, "magnet": "Non Magnet", "grdlevl": "6-8", "x": 1454081.0053139201, "y": 473102.99427581002, "mag_focus": null, "schl_stat": "Current" }, "geometry": { "type": "Point", "coordinates": [ -80.823888085758199, 35.036163774676425 ] } },
{ "type": "Feature", "properties": { "objectid": 32, "school_num": 4346, "school": "CORNELIUS", "school_typ": "ELEMENTARY", "address": "21126 Catawba Avenue", "city": "Cornelius", "zipcode": 28031, "magnet": "Non Magnet", "grdlevl": "K-5", "x": 1445147.0051373199, "y": 635503.99558865, "mag_focus": null, "schl_stat": "Current" }, "geometry": { "type": "Point", "coordinates": [ -80.863915437175635, 35.481851721573541 ] } },
{ "type": "Feature", "properties": { "objectid": 33, "school_num": 4349, "school": "COTSWOLD", "school_typ": "ELEMENTARY", "address": "300 Greenwich Road", "city": "Charlotte", "zipcode": 28211, "magnet": "Partial", "grdlevl": "3-5", "x": 1462932.9967962501, "y": 525067.99926949001, "mag_focus": "International Baccalaureate", "schl_stat": "Current" }, "geometry": { "type": "Point", "coordinates": [ -80.797463792813375, 35.179368654348039 ] } },
{ "type": "Feature", "properties": { "objectid": 34, "school_num": 5351, "school": "COULWOOD STEM ACADEMY", "school_typ": "MIDDLE", "address": "500 Kentberry Drive", "city": "Charlotte", "zipcode": 28214, "magnet": "Partial", "grdlevl": "6-8", "x": 1419825.0013194999, "y": 571324.99468181003, "mag_focus": "STEM", "schl_stat": "Current" }, "geometry": { "type": "Point", "coordinates": [ -80.944735028421306, 35.304212317566183 ] } },
{ "type": "Feature", "properties": { "objectid": 35, "school_num": 5353, "school": "CRESTDALE", "school_typ": "MIDDLE", "address": "940 Sam Newell Road", "city": "Matthews", "zipcode": 28105, "magnet": "Partial", "grdlevl": "6-8", "x": 1486350.000159, "y": 506162.9954129, "mag_focus": "Visual & Performing Arts", "schl_stat": "Current" }, "geometry": { "type": "Point", "coordinates": [ -80.718012657192233, 35.128570768235605 ] } },
{ "type": "Feature", "properties": { "objectid": 36, "school_num": 4418, "school": "CROFT COMMUNITY", "school_typ": "ELEMENTARY", "address": "4911 Hucks Road", "city": "Charlotte", "zipcode": 28269, "magnet": "Non Magnet", "grdlevl": "K-5", "x": 1461670.9930866701, "y": 585949.99856821995, "mag_focus": null, "schl_stat": "Current" }, "geometry": { "type": "Point", "coordinates": [ -80.805391866685966, 35.346560768281911 ] } },
{ "type": "Feature", "properties": { "objectid": 37, "school_num": 4352, "school": "CROWN POINT", "school_typ": "ELEMENTARY", "address": "3335 Sam Newell Road", "city": "Matthews", "zipcode": 28105, "magnet": "Non Magnet", "grdlevl": "K-5", "x": 1487431.99930733, "y": 517581.99357224, "mag_focus": null, "schl_stat": "Current" }, "geometry": { "type": "Point", "coordinates": [ -80.715054190412104, 35.159993494601821 ] } },
{ "type": "Feature", "properties": { "objectid": 38, "school_num": 4362, "school": "DAVID COX ROAD", "school_typ": "ELEMENTARY", "address": "4215 David Cox Road", "city": "Charlotte", "zipcode": 28269, "magnet": "Non Magnet", "grdlevl": "K-5", "x": 1462941.9987467502, "y": 582290.99998073, "mag_focus": null, "schl_stat": "Current" }, "geometry": { "type": "Point", "coordinates": [ -80.800907650233597, 35.336572339302492 ] } },
{ "type": "Feature", "properties": { "objectid": 39, "school_num": 4365, "school": "DEVONSHIRE", "school_typ": "ELEMENTARY", "address": "6500 Barrington Drive", "city": "Charlotte", "zipcode": 28215, "magnet": "Non Magnet", "grdlevl": "K-5", "x": 1478772.99792458, "y": 548771.99713698006, "mag_focus": null, "schl_stat": "Current" }, "geometry": { "type": "Point", "coordinates": [ -80.745856486654873, 35.245265896348513 ] } },
{ "type": "Feature", "properties": { "objectid": 40, "school_num": 4374, "school": "DRUID HILLS ACADEMY", "school_typ": "MIDDLE", "address": "2801 Lucena Street", "city": "Charlotte", "zipcode": 28206, "magnet": "Non Magnet", "grdlevl": "6-8", "x": 1455415.0033020801, "y": 553511.99684330996, "mag_focus": null, "schl_stat": "Current" }, "geometry": { "type": "Point", "coordinates": [ -80.824368777414392, 35.257133650352465 ] } },
{ "type": "Feature", "properties": { "objectid": 41, "school_num": 4374, "school": "DRUID HILLS ACADEMY", "school_typ": "ELEMENTARY", "address": "2801 Lucena Street", "city": "Charlotte", "zipcode": 28206, "magnet": "Non Magnet", "grdlevl": "PreK-5", "x": 1455415.0033020801, "y": 553511.99684330996, "mag_focus": null, "schl_stat": "Current" }, "geometry": { "type": "Point", "coordinates": [ -80.824368777414392, 35.257133650352465 ] } },
{ "type": "Feature", "properties": { "objectid": 42, "school_num": 4471, "school": "NATIONS FORD", "school_typ": "ELEMENTARY", "address": "7050 Nations Ford Road", "city": "Charlotte", "zipcode": 28217, "magnet": "Non Magnet", "grdlevl": "K-5", "x": 1430254.0001464901, "y": 517191.99992964999, "mag_focus": null, "schl_stat": "Current" }, "geometry": { "type": "Point", "coordinates": [ -80.906301932604151, 35.156056611355588 ] } },
{ "type": "Feature", "properties": { "objectid": 43, "school_num": 7377, "school": "EAST MECKLENBURG", "school_typ": "HIGH", "address": "6800 Monroe Road", "city": "Charlotte", "zipcode": 28212, "magnet": "Partial", "grdlevl": "9-12", "x": 1474889.9974885001, "y": 523586.99731021997, "mag_focus": "International Baccalaureate", "schl_stat": "Current" }, "geometry": { "type": "Point", "coordinates": [ -80.757366704430297, 35.1758881888099 ] } },
{ "type": "Feature", "properties": { "objectid": 44, "school_num": 4379, "school": "EASTOVER", "school_typ": "ELEMENTARY", "address": "500 Cherokee Road", "city": "Charlotte", "zipcode": 28207, "magnet": "Non Magnet", "grdlevl": "K-5", "x": 1455911.0036224099, "y": 531460.99370131001, "mag_focus": null, "schl_stat": "Current" }, "geometry": { "type": "Point", "coordinates": [ -80.821352349921568, 35.196580018614874 ] } },
{ "type": "Feature", "properties": { "objectid": 45, "school_num": 5381, "school": "EASTWAY", "school_typ": "MIDDLE", "address": "1501 Norland Road", "city": "Charlotte", "zipcode": 28205, "magnet": "Partial", "grdlevl": "6-8", "x": 1469378.9983399201, "y": 536202.99635639996, "mag_focus": "Leadership", "schl_stat": "Current" }, "geometry": { "type": "Point", "coordinates": [ -80.776561747216149, 35.210277959129286 ] } },
{ "type": "Feature", "properties": { "objectid": 46, "school_num": 4382, "school": "ELIZABETH LANE", "school_typ": "ELEMENTARY", "address": "121 Elizabeth Lane", "city": "Matthews", "zipcode": 28105, "magnet": "Non Magnet", "grdlevl": "K-5", "x": 1477466.99692766, "y": 500429.99703639996, "mag_focus": null, "schl_stat": "Current" }, "geometry": { "type": "Point", "coordinates": [ -80.747380142801063, 35.112394540898833 ] } },
{ "type": "Feature", "properties": { "objectid": 47, "school_num": 4384, "school": "ELIZABETH TRADITIONAL", "school_typ": "ELEMENTARY", "address": "1601 Park Drive", "city": "Charlotte", "zipcode": 28204, "magnet": "Full", "grdlevl": "K-5", "x": 1454702.00735275, "y": 538412.99554530997, "mag_focus": "Leadership", "schl_stat": "Current" }, "geometry": { "type": "Point", "coordinates": [ -80.825826561484334, 35.21561764139053 ] } },
{ "type": "Feature", "properties": { "objectid": 48, "school_num": 4383, "school": "ELON PARK", "school_typ": "ELEMENTARY", "address": "11425 Ardrey Kell Road", "city": "Charlotte", "zipcode": 28277, "magnet": "Non Magnet", "grdlevl": "K-5", "x": 1448133.00703932, "y": 468360.99883856002, "mag_focus": null, "schl_stat": "Current" }, "geometry": { "type": "Point", "coordinates": [ -80.843461308644095, 35.022834357574745 ] } },
{ "type": "Feature", "properties": { "objectid": 49, "school_num": 4385, "school": "ENDHAVEN", "school_typ": "ELEMENTARY", "address": "6815 Endhaven Lane", "city": "Charlotte", "zipcode": 28277, "magnet": "Non Magnet", "grdlevl": "K-5", "x": 1450817.0039679098, "y": 484324.99643806001, "mag_focus": null, "schl_stat": "Current" }, "geometry": { "type": "Point", "coordinates": [ -80.835483600342499, 35.066828307354015 ] } },
{ "type": "Feature", "properties": { "objectid": 50, "school_num": 5394, "school": "FRANCIS BRADLEY", "school_typ": "MIDDLE", "address": "13345 Beatties Ford Road", "city": "Charlotte", "zipcode": 28078, "magnet": "Non Magnet", "grdlevl": "6-8", "x": 1426536.00200509, "y": 604888.99317048001, "mag_focus": null, "schl_stat": "Current" }, "geometry": { "type": "Point", "coordinates": [ -80.92442631693784, 35.396774883118596 ] } },
{ "type": "Feature", "properties": { "objectid": 51, "school_num": 7397, "school": "GARINGER", "school_typ": "HIGH", "address": "1100 Eastway Drive", "city": "Charlotte", "zipcode": 28205, "magnet": "Non Magnet", "grdlevl": "9-12", "x": 1467967.99525641, "y": 547457.99910880998, "mag_focus": null, "schl_stat": "Current" }, "geometry": { "type": "Point", "coordinates": [ -80.781961232661985, 35.241128542284756 ] } },
{ "type": "Feature", "properties": { "objectid": 52, "school_num": 4558, "school": "GRAND OAK", "school_typ": "ELEMENTARY", "address": "15410 Stumptown Road", "city": "Huntersville", "zipcode": 28078, "magnet": "Non Magnet", "grdlevl": "K-5", "x": 1442280.00332542, "y": 615729.99675089004, "mag_focus": null, "schl_stat": "Current" }, "geometry": { "type": "Point", "coordinates": [ -80.872291555365393, 35.42738308328569 ] } },
{ "type": "Feature", "properties": { "objectid": 53, "school_num": 4368, "school": "FIRST WARD CREATIVE ARTS", "school_typ": "ELEMENTARY", "address": "715 North Caldwell Street", "city": "Charlotte", "zipcode": 28202, "magnet": "Full", "grdlevl": "6-8", "x": 1452866.0005260902, "y": 543359.99844657001, "mag_focus": "Visual & Performing Arts", "schl_stat": "Current" }, "geometry": { "type": "Point", "coordinates": [ -80.832278375110704, 35.229115129563489 ] } },
{ "type": "Feature", "properties": { "objectid": 54, "school_num": 4357, "school": "DAVIDSON", "school_typ": "ELEMENTARY", "address": "635 South Street", "city": "Davidson", "zipcode": 28036, "magnet": "Non Magnet", "grdlevl": "K-5", "x": 1449846.0006605799, "y": 638288.99559606996, "mag_focus": null, "schl_stat": "Current" }, "geometry": { "type": "Point", "coordinates": [ -80.848307978603401, 35.489743636397577 ] } },
{ "type": "Feature", "properties": { "objectid": 55, "school_num": 4398, "school": "GREENWAY PARK", "school_typ": "ELEMENTARY", "address": "8301 Monroe Road", "city": "Charlotte", "zipcode": 28212, "magnet": "Partial", "grdlevl": "K-5", "x": 1478182.99319908, "y": 516798.99874713999, "mag_focus": "STEM", "schl_stat": "Current" }, "geometry": { "type": "Point", "coordinates": [ -80.745948947241047, 35.157399396979599 ] } },
{ "type": "Feature", "properties": { "objectid": 56, "school_num": 7405, "school": "HARDING UNIVERSITY", "school_typ": "HIGH", "address": "2001 Alleghany Street", "city": "Charlotte", "zipcode": 28208, "magnet": "Partial", "grdlevl": "9-12", "x": 1431740.0073450799, "y": 546143.99353472993, "mag_focus": "STEM, International Baccalaureate", "schl_stat": "Current" }, "geometry": { "type": "Point", "coordinates": [ -80.903188098260713, 35.235671194266168 ] } },
{ "type": "Feature", "properties": { "objectid": 57, "school_num": 4406, "school": "HAWK RIDGE", "school_typ": "ELEMENTARY", "address": "9201 Bryant Farms Road", "city": "Charlotte", "zipcode": 28277, "magnet": "Non Magnet", "grdlevl": "K-5", "x": 1453769.0003605001, "y": 475798.99380507, "mag_focus": null, "schl_stat": "Current" }, "geometry": { "type": "Point", "coordinates": [ -80.825095822237387, 35.043554663475319 ] } },
{ "type": "Feature", "properties": { "objectid": 58, "school_num": 7386, "school": "HAWTHORNE ACADEMY OF HEALTH SCIENCE", "school_typ": "HIGH", "address": "1411 Hawthorne Lane", "city": "Charlotte", "zipcode": 28205, "magnet": "Full", "grdlevl": "9-12", "x": 1458184.00202917, "y": 543184.99781232001, "mag_focus": "STEM", "schl_stat": "Current" }, "geometry": { "type": "Point", "coordinates": [ -80.814462402718817, 35.228902743653599 ] } },
{ "type": "Feature", "properties": { "objectid": 59, "school_num": 4410, "school": "HICKORY GROVE", "school_typ": "ELEMENTARY", "address": "6709 Pence Road", "city": "Charlotte", "zipcode": 28215, "magnet": "Non Magnet", "grdlevl": "K-5", "x": 1487305.99266958, "y": 541682.99851972994, "mag_focus": null, "schl_stat": "Current" }, "geometry": { "type": "Point", "coordinates": [ -80.716870282612135, 35.226199555834974 ] } },
{ "type": "Feature", "properties": { "objectid": 60, "school_num": 4412, "school": "HIDDEN VALLEY", "school_typ": "ELEMENTARY", "address": "5100 Snow White Lane", "city": "Charlotte", "zipcode": 28213, "magnet": "Non Magnet", "grdlevl": "K-5", "x": 1467451.9953041701, "y": 557307.99974997004, "mag_focus": null, "schl_stat": "Current" }, "geometry": { "type": "Point", "coordinates": [ -80.784282040165252, 35.268163136886045 ] } },
{ "type": "Feature", "properties": { "objectid": 61, "school_num": 4411, "school": "HIGHLAND CREEK", "school_typ": "ELEMENTARY", "address": "7242 Highland Creek Parkway", "city": "Charlotte", "zipcode": 28269, "magnet": "Non Magnet", "grdlevl": "K-5", "x": 1474405.9997688201, "y": 597263.99464098003, "mag_focus": null, "schl_stat": "Current" }, "geometry": { "type": "Point", "coordinates": [ -80.763365612025922, 35.378271042325061 ] } },
{ "type": "Feature", "properties": { "objectid": 62, "school_num": 4413, "school": "HIGHLAND MILL MONTESSORI", "school_typ": "ELEMENTARY", "address": "3201 Clemson Avenue", "city": "Charlotte", "zipcode": 28205, "magnet": "Full", "grdlevl": "PreK-6", "x": 1461336.9930985, "y": 548360.99894322001, "mag_focus": "Montessori", "schl_stat": "Current" }, "geometry": { "type": "Point", "coordinates": [ -80.804220846763656, 35.243280195630078 ] } },
{ "type": "Feature", "properties": { "objectid": 63, "school_num": 4414, "school": "HIGHLAND RENAISSANCE", "school_typ": "ELEMENTARY", "address": "125 W. Craighead Road", "city": "Charlotte", "zipcode": 28206, "magnet": "Non Magnet", "grdlevl": "K-5", "x": 1461667.9999824199, "y": 552855.99946763995, "mag_focus": null, "schl_stat": "Current" }, "geometry": { "type": "Point", "coordinates": [ -80.803385882894389, 35.255645413594408 ] } },
{ "type": "Feature", "properties": { "objectid": 64, "school_num": 7415, "school": "HOPEWELL", "school_typ": "HIGH", "address": "11530 Beatties Ford Road", "city": "Huntersville", "zipcode": 28078, "magnet": "Non Magnet", "grdlevl": "9-12", "x": 1430183.00520974, "y": 598199.99473748007, "mag_focus": null, "schl_stat": "Current" }, "geometry": { "type": "Point", "coordinates": [ -80.911758551841487, 35.378593297984246 ] } },
{ "type": "Feature", "properties": { "objectid": 65, "school_num": 4416, "school": "HORNETS NEST", "school_typ": "ELEMENTARY", "address": "6700 Beatties Ford Road", "city": "Charlotte", "zipcode": 28216, "magnet": "Non Magnet", "grdlevl": "K-5", "x": 1443663.0025279101, "y": 578338.99837029993, "mag_focus": null, "schl_stat": "Current" }, "geometry": { "type": "Point", "coordinates": [ -80.865291556268033, 35.324737488952145 ] } },
{ "type": "Feature", "properties": { "objectid": 66, "school_num": 4420, "school": "HUNTERSVILLE", "school_typ": "ELEMENTARY", "address": "200 Gilead Road", "city": "Huntersville", "zipcode": 28078, "magnet": "Non Magnet", "grdlevl": "K-5", "x": 1449720.00124067, "y": 609785.99682789994, "mag_focus": null, "schl_stat": "Current" }, "geometry": { "type": "Point", "coordinates": [ -80.846949769573058, 35.411437304357214 ] } },
{ "type": "Feature", "properties": { "objectid": 67, "school_num": 4422, "school": "HUNTINGTOWNE FARMS", "school_typ": "ELEMENTARY", "address": "2520 Huntingtowne Farms Lane", "city": "Charlotte", "zipcode": 28210, "magnet": "Partial", "grdlevl": "K-5", "x": 1443900.0053347501, "y": 508449.99969714996, "mag_focus": "International Baccalaureate", "schl_stat": "Current" }, "geometry": { "type": "Point", "coordinates": [ -80.860106906610795, 35.132751775665668 ] } },
{ "type": "Feature", "properties": { "objectid": 68, "school_num": 4424, "school": "IDLEWILD", "school_typ": "ELEMENTARY", "address": "7101 Idlewild Road", "city": "Charlotte", "zipcode": 28212, "magnet": "Partial", "grdlevl": "K-5", "x": 1479134.99457592, "y": 527536.99597188993, "mag_focus": "Learning Immersion & Talent Development", "schl_stat": "Current" }, "geometry": { "type": "Point", "coordinates": [ -80.743395215378669, 35.186945521530532 ] } },
{ "type": "Feature", "properties": { "objectid": 69, "school_num": 7426, "school": "INDEPENDENCE", "school_typ": "HIGH", "address": "1967 Patriot Drive", "city": "Charlotte", "zipcode": 28227, "magnet": "Non Magnet", "grdlevl": "9-12", "x": 1495913.9967789899, "y": 530997.99364306009, "mag_focus": null, "schl_stat": "Current" }, "geometry": { "type": "Point", "coordinates": [ -80.687441941662513, 35.19725047276922 ] } },
{ "type": "Feature", "properties": { "objectid": 70, "school_num": 4571, "school": "IRWIN ACADEMIC CENTER", "school_typ": "ELEMENTARY", "address": "329 N. Irwin Avenue", "city": "Charlotte", "zipcode": 28202, "magnet": "Full", "grdlevl": "K-5", "x": 1447568.0058727399, "y": 546576.99430914002, "mag_focus": "Learning Immersion & Talent Development", "schl_stat": "Current" }, "geometry": { "type": "Point", "coordinates": [ -80.850217305244129, 35.237682854003651 ] } },
{ "type": "Feature", "properties": { "objectid": 71, "school_num": 4478, "school": "J.H. GUNN", "school_typ": "ELEMENTARY", "address": "7400 Harrisburg Road", "city": "Charlotte", "zipcode": 28215, "magnet": "Non Magnet", "grdlevl": "K-5", "x": 1496403.9957989901, "y": 538398.99721371999, "mag_focus": null, "schl_stat": "Current" }, "geometry": { "type": "Point", "coordinates": [ -80.686222767894463, 35.21760598810274 ] } },
{ "type": "Feature", "properties": { "objectid": 72, "school_num": 5305, "school": "J.M. ALEXANDER", "school_typ": "MIDDLE", "address": "12010 Hambright Road", "city": "Huntersville", "zipcode": 28078, "magnet": "Partial", "grdlevl": "6-8", "x": 1452120.58895916, "y": 597069.62429482001, "mag_focus": "International Baccalaureate", "schl_stat": "Current" }, "geometry": { "type": "Point", "coordinates": [ -80.838104140640297, 35.376626419723848 ] } },
{ "type": "Feature", "properties": { "objectid": 73, "school_num": 4433, "school": "J.V. WASHAM", "school_typ": "ELEMENTARY", "address": "9611 Westmoreland Road", "city": "Cornelius", "zipcode": 28031, "magnet": "Non Magnet", "grdlevl": "K-5", "x": 1444162.0034984201, "y": 629877.99470156, "mag_focus": null, "schl_stat": "Current" }, "geometry": { "type": "Point", "coordinates": [ -80.866868186079245, 35.466345954759177 ] } },
{ "type": "Feature", "properties": { "objectid": 74, "school_num": 4432, "school": "J.W. GRIER", "school_typ": "ELEMENTARY", "address": "8330 Grier Road", "city": "Charlotte", "zipcode": 28215, "magnet": "Non Magnet", "grdlevl": "K-5", "x": 1484973.9927404101, "y": 556882.99600682, "mag_focus": null, "schl_stat": "Current" }, "geometry": { "type": "Point", "coordinates": [ -80.725562612987417, 35.267846621066319 ] } },
{ "type": "Feature", "properties": { "objectid": 75, "school_num": 4583, "school": "J.W. WILSON", "school_typ": "MIDDLE", "address": "7020 Tuckaseegee Road", "city": "Charlotte", "zipcode": 28214, "magnet": "Partial", "grdlevl": "6-8", "x": 1419136.00335367, "y": 551414.99677223002, "mag_focus": "Computer Science", "schl_stat": "Current" }, "geometry": { "type": "Point", "coordinates": [ -80.945736019063702, 35.249480083071866 ] } },
{ "type": "Feature", "properties": { "objectid": 76, "school_num": 5428, "school": "JAMES MARTIN", "school_typ": "MIDDLE", "address": "6301 University Pointe Boulevard", "city": "Charlotte", "zipcode": 28262, "magnet": "Non Magnet", "grdlevl": "6-8", "x": 1472799.31958325, "y": 568277.37446473993, "mag_focus": null, "schl_stat": "Current" }, "geometry": { "type": "Point", "coordinates": [ -80.767023990696771, 35.298561042773478 ] } },
{ "type": "Feature", "properties": { "objectid": 77, "school_num": 5431, "school": "JAY M. ROBINSON", "school_typ": "MIDDLE", "address": "5925 Ballantyne Commons Parkway", "city": "Charlotte", "zipcode": 28277, "magnet": "Non Magnet", "grdlevl": "6-8", "x": 1466298.9995786699, "y": 482601.99561898003, "mag_focus": null, "schl_stat": "Current" }, "geometry": { "type": "Point", "coordinates": [ -80.78364747274162, 35.062870166728182 ] } },
{ "type": "Feature", "properties": { "objectid": 78, "school_num": 4429, "school": "GOVERNORS VILLAGE", "school_typ": "MIDDLE", "address": "7810 Neal Road", "city": "Charlotte", "zipcode": 28262, "magnet": "Partial", "grdlevl": "5-8", "x": 1470470.9971401701, "y": 567754.99690055999, "mag_focus": "STEM", "schl_stat": "Current" }, "geometry": { "type": "Point", "coordinates": [ -80.774794882791269, 35.297011848487642 ] } },
{ "type": "Feature", "properties": { "objectid": 79, "school_num": 7205, "school": "JT WILLIAMS SECONDARY MONTESSORI", "school_typ": "HIGH", "address": "2400 Carmine Street", "city": "Charlotte", "zipcode": 28206, "magnet": "Full", "grdlevl": "9-12", "x": 1450218.0045097501, "y": 557141.99384840007, "mag_focus": "Montessori", "schl_stat": "Current" }, "geometry": { "type": "Point", "coordinates": [ -80.84200042541363, 35.266842244981333 ] } },
{ "type": "Feature", "properties": { "objectid": 80, "school_num": 5582, "school": "JT WILLIAMS SECONDARY MONTESSORI", "school_typ": "MIDDLE", "address": "2400 Carmine Street", "city": "Charlotte", "zipcode": 28206, "magnet": "Full", "grdlevl": "7-8", "x": 1450218.0045097501, "y": 557141.99384840007, "mag_focus": "Montessori", "schl_stat": "Current" }, "geometry": { "type": "Point", "coordinates": [ -80.84200042541363, 35.266842244981333 ] } },
{ "type": "Feature", "properties": { "objectid": 81, "school_num": 5434, "school": "KENNEDY", "school_typ": "MIDDLE", "address": "4000 Gallant Lane", "city": "Charlotte", "zipcode": 28273, "magnet": "Partial", "grdlevl": "6-8", "x": 1415395.0032897398, "y": 516513.99242739001, "mag_focus": "STEM", "schl_stat": "Current" }, "geometry": { "type": "Point", "coordinates": [ -80.955960892264798, 35.153399812962313 ] } },
{ "type": "Feature", "properties": { "objectid": 82, "school_num": 4436, "school": "LAKE WYLIE", "school_typ": "ELEMENTARY", "address": "13620 Erwin Road", "city": "Charlotte", "zipcode": 28273, "magnet": "Non Magnet", "grdlevl": "PreK-5", "x": 1410420.0040534099, "y": 502775.99496906, "mag_focus": null, "schl_stat": "Current" }, "geometry": { "type": "Point", "coordinates": [ -80.97168895538627, 35.11538881034177 ] } },
{ "type": "Feature", "properties": { "objectid": 83, "school_num": 4408, "school": "LAWRENCE ORR", "school_typ": "ELEMENTARY", "address": "4835 Shamrock Drive", "city": "Charlotte", "zipcode": 28215, "magnet": "Non Magnet", "grdlevl": "K-5", "x": 1479214.9934316601, "y": 541706.99650322995, "mag_focus": null, "schl_stat": "Current" }, "geometry": { "type": "Point", "coordinates": [ -80.743960636846381, 35.225877979860563 ] } },
{ "type": "Feature", "properties": { "objectid": 84, "school_num": 4440, "school": "LEBANON ROAD", "school_typ": "ELEMENTARY", "address": "7300 Lebanon Road", "city": "Charlotte", "zipcode": 28227, "magnet": "Non Magnet", "grdlevl": "PreK-5", "x": 1495224.9991412498, "y": 526227.99432482, "mag_focus": null, "schl_stat": "Current" }, "geometry": { "type": "Point", "coordinates": [ -80.68947620416283, 35.18411371518831 ] } },
{ "type": "Feature", "properties": { "objectid": 85, "school_num": 4444, "school": "LONG CREEK", "school_typ": "ELEMENTARY", "address": "9213 Beatties Ford Road", "city": "Huntersville", "zipcode": 28078, "magnet": "Partial", "grdlevl": "PreK-5", "x": 1436124.0041545001, "y": 587434.99887905992, "mag_focus": "Visual & Performing Arts", "schl_stat": "Current" }, "geometry": { "type": "Point", "coordinates": [ -80.891143181225345, 35.349333442948193 ] } },
{ "type": "Feature", "properties": { "objectid": 86, "school_num": 7445, "school": "MALLARD CREEK", "school_typ": "HIGH", "address": "3825 Johnston Oehler Road", "city": "Charlotte", "zipcode": 28269, "magnet": "Non Magnet", "grdlevl": "9-12", "x": 1472372.9969450799, "y": 592611.99771138991, "mag_focus": null, "schl_stat": "Current" }, "geometry": { "type": "Point", "coordinates": [ -80.769906636349816, 35.365391846681071 ] } },
{ "type": "Feature", "properties": { "objectid": 87, "school_num": 4446, "school": "MALLARD CREEK", "school_typ": "ELEMENTARY", "address": "9801 Mallard Creek Road", "city": "Charlotte", "zipcode": 28269, "magnet": "Partial", "grdlevl": "K-5", "x": 1470912.99264725, "y": 581733.99551730999, "mag_focus": "Learning Immersion & Talent Development", "schl_stat": "Current" }, "geometry": { "type": "Point", "coordinates": [ -80.774151045996589, 35.335436500646694 ] } },
{ "type": "Feature", "properties": { "objectid": 88, "school_num": 7364, "school": "HAWTHORNE MILITARY AND GLOBAL LEADERSHIP", "school_typ": "HIGH", "address": "1411 Hawthorne Lane", "city": "Charlotte", "zipcode": 28205, "magnet": "Full", "grdlevl": "9-12", "x": 1458184.00202917, "y": 543184.99781232001, "mag_focus": "Military, Global Leadership & Public Safety", "schl_stat": "Current" }, "geometry": { "type": "Point", "coordinates": [ -80.814462402718817, 35.228902743653599 ] } },
{ "type": "Feature", "properties": { "objectid": 89, "school_num": 8366, "school": "MARIE G. DAVIS", "school_typ": "MIDDLE", "address": "3351 Griffith Street", "city": "Charlotte", "zipcode": 28203, "magnet": "Partial", "grdlevl": "6-8", "x": 1439426.0021436699, "y": 533878.99345847999, "mag_focus": "International Baccalaureate", "schl_stat": "Current" }, "geometry": { "type": "Point", "coordinates": [ -80.876676297687951, 35.202379128873424 ] } },
{ "type": "Feature", "properties": { "objectid": 90, "school_num": 8366, "school": "MARIE G. DAVIS", "school_typ": "ELEMENTARY", "address": "3351 Griffith Street", "city": "Charlotte", "zipcode": 28203, "magnet": "Partial", "grdlevl": "K-5", "x": 1439426.0021436699, "y": 533878.99345847999, "mag_focus": "International Baccalaureate", "schl_stat": "Current" }, "geometry": { "type": "Point", "coordinates": [ -80.876676297687951, 35.202379128873424 ] } },
{ "type": "Feature", "properties": { "objectid": 91, "school_num": 5448, "school": "MARTIN LUTHER KING JR.", "school_typ": "MIDDLE", "address": "500 Bilmark Avenue", "city": "Charlotte", "zipcode": 28213, "magnet": "Non Magnet", "grdlevl": "6-8", "x": 1469127.99752958, "y": 555503.9951558999, "mag_focus": null, "schl_stat": "Current" }, "geometry": { "type": "Point", "coordinates": [ -80.778559590622677, 35.263289792254248 ] } },
{ "type": "Feature", "properties": { "objectid": 92, "school_num": 4447, "school": "MATTHEWS", "school_typ": "ELEMENTARY", "address": "200 E. McDowell Street", "city": "Matthews", "zipcode": 28105, "magnet": "Non Magnet", "grdlevl": "K-5", "x": 1484636.9993199101, "y": 500589.99409172998, "mag_focus": null, "schl_stat": "Current" }, "geometry": { "type": "Point", "coordinates": [ -80.723417421892321, 35.113178489070556 ] } },
{ "type": "Feature", "properties": { "objectid": 93, "school_num": 4449, "school": "MCALPINE", "school_typ": "ELEMENTARY", "address": "9100 Carswell Lane", "city": "Charlotte", "zipcode": 28277, "magnet": "Non Magnet", "grdlevl": "PreK-5", "x": 1453094.00105433, "y": 489740.99348005996, "mag_focus": null, "schl_stat": "Current" }, "geometry": { "type": "Point", "coordinates": [ -80.828208464541845, 35.081822897177851 ] } },
{ "type": "Feature", "properties": { "objectid": 94, "school_num": 5450, "school": "MCCLINTOCK", "school_typ": "MIDDLE", "address": "1925 Rama Road", "city": "Charlotte", "zipcode": 28212, "magnet": "Partial", "grdlevl": "6-8", "x": 1471509.9963745, "y": 525055.99666881992, "mag_focus": "STEAM", "schl_stat": "Current" }, "geometry": { "type": "Point", "coordinates": [ -80.768763615476416, 35.179758972479306 ] } },
{ "type": "Feature", "properties": { "objectid": 95, "school_num": 4451, "school": "MCKEE ROAD", "school_typ": "ELEMENTARY", "address": "4101 McKee Road", "city": "Charlotte", "zipcode": 28270, "magnet": "Non Magnet", "grdlevl": "K-5", "x": 1474930.9944537401, "y": 484373.99798048002, "mag_focus": null, "schl_stat": "Current" }, "geometry": { "type": "Point", "coordinates": [ -80.754909826031366, 35.068161082871569 ] } },
{ "type": "Feature", "properties": { "objectid": 96, "school_num": 4453, "school": "MERRY OAKS INTERNATIONAL ACADEMY", "school_typ": "ELEMENTARY", "address": "3508 Draper Avenue", "city": "Charlotte", "zipcode": 28205, "magnet": "Non Magnet", "grdlevl": "K-5", "x": 1467568.99999142, "y": 539156.99602582003, "mag_focus": null, "schl_stat": "Current" }, "geometry": { "type": "Point", "coordinates": [ -80.782798057218471, 35.218304131508987 ] } },
{ "type": "Feature", "properties": { "objectid": 97, "school_num": 5455, "school": "MINT HILL", "school_typ": "MIDDLE", "address": "11501 Idlewild Road", "city": "Matthews", "zipcode": 28105, "magnet": "Non Magnet", "grdlevl": "6-8", "x": 1492407.9965731699, "y": 515039.99734389997, "mag_focus": null, "schl_stat": "Current" }, "geometry": { "type": "Point", "coordinates": [ -80.698262284331449, 35.153244936173124 ] } },
{ "type": "Feature", "properties": { "objectid": 98, "school_num": 4459, "school": "MONTCLAIRE", "school_typ": "ELEMENTARY", "address": "5801 Farmbrook Drive", "city": "Charlotte", "zipcode": 28210, "magnet": "Non Magnet", "grdlevl": "K-5", "x": 1442074.00537783, "y": 515525.99768422998, "mag_focus": null, "schl_stat": "Current" }, "geometry": { "type": "Point", "coordinates": [ -80.866658281927656, 35.152096920361686 ] } },
{ "type": "Feature", "properties": { "objectid": 99, "school_num": 4462, "school": "MOUNTAIN ISLAND LAKE ACADEMY", "school_typ": "MIDDLE", "address": "7905 Pleasant Grove Road", "city": "Charlotte", "zipcode": 28216, "magnet": "Non Magnet", "grdlevl": "6-8", "x": 1424737.0010099099, "y": 572624.99437839002, "mag_focus": null, "schl_stat": "Current" }, "geometry": { "type": "Point", "coordinates": [ -80.928358922174297, 35.308046828154779 ] } },
{ "type": "Feature", "properties": { "objectid": 100, "school_num": 4462, "school": "MOUNTAIN ISLAND LAKE ACADEMY", "school_typ": "ELEMENTARY", "address": "7905 Pleasant Grove Road", "city": "Charlotte", "zipcode": 28216, "magnet": "Non Magnet", "grdlevl": "PreK-5", "x": 1424737.0010099099, "y": 572624.99437839002, "mag_focus": null, "schl_stat": "Current" }, "geometry": { "type": "Point", "coordinates": [ -80.928358922174297, 35.308046828154779 ] } },
{ "type": "Feature", "properties": { "objectid": 101, "school_num": 7466, "school": "MYERS PARK", "school_typ": "HIGH", "address": "2400 Colony Road", "city": "Charlotte", "zipcode": 28209, "magnet": "Non Magnet", "grdlevl": "9-12", "x": 1452141.00164799, "y": 522180.99782565003, "mag_focus": null, "schl_stat": "Current" }, "geometry": { "type": "Point", "coordinates": [ -80.833395985538843, 35.170895134043576 ] } },
{ "type": "Feature", "properties": { "objectid": 102, "school_num": 4464, "school": "MYERS PARK TRADITIONAL", "school_typ": "ELEMENTARY", "address": "2132 Radcliffe Avenue", "city": "Charlotte", "zipcode": 28207, "magnet": "Full", "grdlevl": "K-5", "x": 1452006.00027758, "y": 529378.99688106996, "mag_focus": "Leadership", "schl_stat": "Current" }, "geometry": { "type": "Point", "coordinates": [ -80.834292701079264, 35.190662768660644 ] } },
{ "type": "Feature", "properties": { "objectid": 103, "school_num": 4468, "school": "GOVERNORS VILLAGE", "school_typ": "ELEMENTARY", "address": "7910 Neal Road", "city": "Charlotte", "zipcode": 28262, "magnet": "Partial", "grdlevl": "K-4", "x": 1470435.9942574201, "y": 568405.99822323001, "mag_focus": "STEM", "schl_stat": "Current" }, "geometry": { "type": "Point", "coordinates": [ -80.774951183647261, 35.298798558304206 ] } },
{ "type": "Feature", "properties": { "objectid": 104, "school_num": 5532, "school": "SOUTH ACADEMY OF INTERNATIONAL LANGUAGES", "school_typ": "ELEMENTARY", "address": "8300 Nations Ford Road", "city": "Charlotte", "zipcode": 28217, "magnet": "Full", "grdlevl": "K-8", "x": 1433460.0071859201, "y": 511376.99285889999, "mag_focus": "World Languages", "schl_stat": "Current" }, "geometry": { "type": "Point", "coordinates": [ -80.895206243180283, 35.140250299017843 ] } },
{ "type": "Feature", "properties": { "objectid": 105, "school_num": 4474, "school": "NEWELL", "school_typ": "ELEMENTARY", "address": "325 W Rocky River Road", "city": "Charlotte", "zipcode": 28213, "magnet": "Non Magnet", "grdlevl": "K-5", "x": 1476597.99472867, "y": 563905.99442797992, "mag_focus": null, "schl_stat": "Current" }, "geometry": { "type": "Point", "coordinates": [ -80.75403575453366, 35.286737050637619 ] } },
{ "type": "Feature", "properties": { "objectid": 106, "school_num": 7480, "school": "NORTH MECKLENBURG", "school_typ": "HIGH", "address": "11201 Old Statesville Road", "city": "Huntersville", "zipcode": 28078, "magnet": "Partial", "grdlevl": "9-12", "x": 1453429.00628982, "y": 595667.99848914007, "mag_focus": "STEM, Entrepreneurship, International Baccalaureate, World Languages", "schl_stat": "Current" }, "geometry": { "type": "Point", "coordinates": [ -80.833628633227107, 35.372842457282324 ] } },
{ "type": "Feature", "properties": { "objectid": 107, "school_num": 7404, "school": "HARPER MIDDLE COLLEGE AT CPCC", "school_typ": "HIGH", "address": "315 W Hebron Street", "city": "Charlotte", "zipcode": 28273, "magnet": "School Option", "grdlevl": "11-13", "x": 1433264.0016724202, "y": 507521.99630380998, "mag_focus": "Early & Middle Colleges", "schl_stat": "Current" }, "geometry": { "type": "Point", "coordinates": [ -80.895615543449495, 35.129649549931699 ] } },
{ "type": "Feature", "properties": { "objectid": 108, "school_num": 7443, "school": "LEVINE MIDDLE COLLEGE AT CPCC", "school_typ": "HIGH", "address": "2728 Campus Ridge Road", "city": "Matthews", "zipcode": 28105, "magnet": "School Option", "grdlevl": "11-13", "x": 1493729.9988504199, "y": 498368.99754946999, "mag_focus": "Early & Middle Colleges", "schl_stat": "Current" }, "geometry": { "type": "Point", "coordinates": [ -80.692889012787376, 35.107506626206053 ] } },
{ "type": "Feature", "properties": { "objectid": 109, "school_num": 5479, "school": "NORTHEAST", "school_typ": "MIDDLE", "address": "5960 Brickstone Drive", "city": "Charlotte", "zipcode": 28227, "magnet": "Partial", "grdlevl": "6-8", "x": 1494582.99976908, "y": 531327.99527963996, "mag_focus": "Computer Science", "schl_stat": "Current" }, "geometry": { "type": "Point", "coordinates": [ -80.69191544846089, 35.198094835432187 ] } },
{ "type": "Feature", "properties": { "objectid": 110, "school_num": 5481, "school": "NORTHRIDGE", "school_typ": "MIDDLE", "address": "7601 The Plaza", "city": "Charlotte", "zipcode": 28215, "magnet": "Partial", "grdlevl": "6-8", "x": 1483535.99824108, "y": 554047.99675556005, "mag_focus": "Computer Science", "schl_stat": "Current" }, "geometry": { "type": "Point", "coordinates": [ -80.73021400663805, 35.259989437455921 ] } },
{ "type": "Feature", "properties": { "objectid": 111, "school_num": 8482, "school": "NORTHWEST SCHOOL OF THE ARTS", "school_typ": "MIDDLE", "address": "1415 Beatties Ford Road", "city": "Charlotte", "zipcode": 28216, "magnet": "Full", "grdlevl": "6-8", "x": 1445880.0007185799, "y": 553578.99506889004, "mag_focus": "Visual & Performing Arts", "schl_stat": "Current" }, "geometry": { "type": "Point", "coordinates": [ -80.856307961842631, 35.256832040914865 ] } },
{ "type": "Feature", "properties": { "objectid": 112, "school_num": 4485, "school": "OAKDALE", "school_typ": "ELEMENTARY", "address": "1825 Oakdale Road", "city": "Charlotte", "zipcode": 28216, "magnet": "Non Magnet", "grdlevl": "K-5", "x": 1434028.0017848299, "y": 569680.99468896992, "mag_focus": null, "schl_stat": "Current" }, "geometry": { "type": "Point", "coordinates": [ -80.897033361279085, 35.30045113497539 ] } },
{ "type": "Feature", "properties": { "objectid": 113, "school_num": 4484, "school": "OAKHURST STEAM ACADEMY", "school_typ": "ELEMENTARY", "address": "4511 Monroe Road", "city": "Charlotte", "zipcode": 28205, "magnet": "Partial", "grdlevl": "K-5", "x": 1467018.99452975, "y": 530616.99506123003, "mag_focus": "STEM", "schl_stat": "Current" }, "geometry": { "type": "Point", "coordinates": [ -80.784125428976367, 35.194815593764432 ] } },
{ "type": "Feature", "properties": { "objectid": 114, "school_num": 4488, "school": "OAKLAWN LANGUAGE ACADEMY", "school_typ": "MIDDLE", "address": "1810 Oaklawn Avenue", "city": "Charlotte", "zipcode": 28216, "magnet": "Full", "grdlevl": "6-8", "x": 1447686.00071549, "y": 551448.99473573, "mag_focus": "World Languages", "schl_stat": "Current" }, "geometry": { "type": "Point", "coordinates": [ -80.850126283214053, 35.251073181473309 ] } },
{ "type": "Feature", "properties": { "objectid": 115, "school_num": 4488, "school": "OAKLAWN LANGUAGE ACADEMY", "school_typ": "ELEMENTARY", "address": "1810 Oaklawn Avenue", "city": "Charlotte", "zipcode": 28216, "magnet": "Full", "grdlevl": "K-5", "x": 1447686.00071549, "y": 551448.99473573, "mag_focus": "World Languages", "schl_stat": "Current" }, "geometry": { "type": "Point", "coordinates": [ -80.850126283214053, 35.251073181473309 ] } },
{ "type": "Feature", "properties": { "objectid": 116, "school_num": 4491, "school": "OLDE PROVIDENCE", "school_typ": "ELEMENTARY", "address": "3800 Rea Road", "city": "Charlotte", "zipcode": 28226, "magnet": "Non Magnet", "grdlevl": "K-5", "x": 1462160.9996525799, "y": 500073.99413948, "mag_focus": null, "schl_stat": "Current" }, "geometry": { "type": "Point", "coordinates": [ -80.798531583918844, 35.110665416720394 ] } },
{ "type": "Feature", "properties": { "objectid": 117, "school_num": 7490, "school": "OLYMPIC", "school_typ": "HIGH", "address": "4301 Sandy Porter Road", "city": "Charlotte", "zipcode": 28273, "magnet": "Non Magnet", "grdlevl": "9-12", "x": 1416498.00731733, "y": 518155.99701739999, "mag_focus": null, "schl_stat": "Current" }, "geometry": { "type": "Point", "coordinates": [ -80.952379472905434, 35.157970329397045 ] } },
{ "type": "Feature", "properties": { "objectid": 118, "school_num": 4493, "school": "PALISADES PARK", "school_typ": "ELEMENTARY", "address": "15321 York Road", "city": "Charlotte", "zipcode": 28278, "magnet": "Non Magnet", "grdlevl": "K-5", "x": 1394092.0065257398, "y": 495211.99336480995, "mag_focus": null, "schl_stat": "Current" }, "geometry": { "type": "Point", "coordinates": [ -81.025762315819819, 35.093706035354337 ] } },
{ "type": "Feature", "properties": { "objectid": 119, "school_num": 4494, "school": "PAW CREEK", "school_typ": "ELEMENTARY", "address": "1300 Cathey Road", "city": "Charlotte", "zipcode": 28214, "magnet": "Partial", "grdlevl": "K-5", "x": 1419565.0057764901, "y": 566568.99369514, "mag_focus": "Computer Science", "schl_stat": "Current" }, "geometry": { "type": "Point", "coordinates": [ -80.945293945054004, 35.291133066288239 ] } },
{ "type": "Feature", "properties": { "objectid": 120, "school_num": 5497, "school": "PIEDMONT", "school_typ": "MIDDLE", "address": "1241 East 10th Street", "city": "Charlotte", "zipcode": 28204, "magnet": "Full", "grdlevl": "6-8", "x": 1455254.0006713299, "y": 541126.99897555995, "mag_focus": "International Baccalaureate", "schl_stat": "Current" }, "geometry": { "type": "Point", "coordinates": [ -80.824145701662871, 35.223101456473813 ] } },
{ "type": "Feature", "properties": { "objectid": 121, "school_num": 4500, "school": "PINEVILLE", "school_typ": "ELEMENTARY", "address": "210 Lowery Street", "city": "Pineville", "zipcode": 28134, "magnet": "Non Magnet", "grdlevl": "K-5", "x": 1434723.0010509898, "y": 489963.99795531004, "mag_focus": null, "schl_stat": "Current" }, "geometry": { "type": "Point", "coordinates": [ -80.889618921596778, 35.081490349686391 ] } },
{ "type": "Feature", "properties": { "objectid": 122, "school_num": 4501, "school": "PINEWOOD", "school_typ": "ELEMENTARY", "address": "805 Seneca Place", "city": "Charlotte", "zipcode": 28210, "magnet": "Non Magnet", "grdlevl": "K-5", "x": 1442868.0051021599, "y": 520580.99577631004, "mag_focus": null, "schl_stat": "Current" }, "geometry": { "type": "Point", "coordinates": [ -80.864320003001012, 35.166025067677069 ] } },
{ "type": "Feature", "properties": { "objectid": 123, "school_num": 4503, "school": "PINEY GROVE", "school_typ": "ELEMENTARY", "address": "8801 Eaglewind Drive", "city": "Charlotte", "zipcode": 28212, "magnet": "Non Magnet", "grdlevl": "PreK-5", "x": 1482788.9971104101, "y": 522529.9941749, "mag_focus": null, "schl_stat": "Current" }, "geometry": { "type": "Point", "coordinates": [ -80.730875174036271, 35.173365626760152 ] } },
{ "type": "Feature", "properties": { "objectid": 124, "school_num": 4392, "school": "POLO RIDGE", "school_typ": "ELEMENTARY", "address": "11830 Tom Short Road", "city": "Charlotte", "zipcode": 28277, "magnet": "Non Magnet", "grdlevl": "K-5", "x": 1462872.9975724102, "y": 476754.99353347998, "mag_focus": null, "schl_stat": "Current" }, "geometry": { "type": "Point", "coordinates": [ -80.794741538953602, 35.046637122204736 ] } },
{ "type": "Feature", "properties": { "objectid": 125, "school_num": 7508, "school": "PROVIDENCE", "school_typ": "HIGH", "address": "1800 Pineville-Matthews Road", "city": "Charlotte", "zipcode": 28270, "magnet": "Non Magnet", "grdlevl": "9-12", "x": 1472620.9974333299, "y": 499717.99878848001, "mag_focus": null, "schl_stat": "Current" }, "geometry": { "type": "Point", "coordinates": [ -80.763539729090141, 35.110203025712224 ] } },
{ "type": "Feature", "properties": { "objectid": 126, "school_num": 4507, "school": "PROVIDENCE SPRING", "school_typ": "ELEMENTARY", "address": "10045 Providence Church Lane", "city": "Charlotte", "zipcode": 28277, "magnet": "Non Magnet", "grdlevl": "K-5", "x": 1470487.9961219102, "y": 486125.99283606, "mag_focus": null, "schl_stat": "Current" }, "geometry": { "type": "Point", "coordinates": [ -80.769860650548949, 35.072757603212075 ] } },
{ "type": "Feature", "properties": { "objectid": 127, "school_num": 4512, "school": "RAMA ROAD", "school_typ": "ELEMENTARY", "address": "1035 Rama Road", "city": "Charlotte", "zipcode": 28211, "magnet": "Non Magnet", "grdlevl": "K-5", "x": 1470465.99354124, "y": 521359.99946763995, "mag_focus": null, "schl_stat": "Current" }, "geometry": { "type": "Point", "coordinates": [ -80.772036177222844, 35.169553972066524 ] } },
{ "type": "Feature", "properties": { "objectid": 128, "school_num": 5513, "school": "RANDOLPH", "school_typ": "MIDDLE", "address": "4400 Water Oak Road", "city": "Charlotte", "zipcode": 28211, "magnet": "Full", "grdlevl": "6-8", "x": 1463839.99498224, "y": 526788.99713981, "mag_focus": "International Baccalaureate", "schl_stat": "Current" }, "geometry": { "type": "Point", "coordinates": [ -80.79453301533573, 35.184141731968722 ] } },
{ "type": "Feature", "properties": { "objectid": 129, "school_num": 5514, "school": "RANSON", "school_typ": "MIDDLE", "address": "5850 Statesville Road", "city": "Charlotte", "zipcode": 28269, "magnet": "Partial", "grdlevl": "6-8", "x": 1451428.00602674, "y": 569283.99515489989, "mag_focus": "International Baccalaureate", "schl_stat": "Current" }, "geometry": { "type": "Point", "coordinates": [ -80.838700757055292, 35.300260037154374 ] } },
{ "type": "Feature", "properties": { "objectid": 130, "school_num": 4516, "school": "REEDY CREEK", "school_typ": "ELEMENTARY", "address": "10801 Plaza Road Extension", "city": "Charlotte", "zipcode": 28215, "magnet": "Non Magnet", "grdlevl": "K-5", "x": 1497144.9956293299, "y": 553882.99577322998, "mag_focus": null, "schl_stat": "Current" }, "geometry": { "type": "Point", "coordinates": [ -80.684621857454189, 35.260179253339658 ] } },
{ "type": "Feature", "properties": { "objectid": 131, "school_num": 4517, "school": "REID PARK ACADEMY", "school_typ": "ELEMENTARY", "address": "4108 West Tyvola Road", "city": "Charlotte", "zipcode": 28208, "magnet": "Non Magnet", "grdlevl": "K-5", "x": 1430915.0027615, "y": 534977.99913448002, "mag_focus": null, "schl_stat": "Current" }, "geometry": { "type": "Point", "coordinates": [ -80.905232838649653, 35.204952862802017 ] } },
{ "type": "Feature", "properties": { "objectid": 132, "school_num": 4515, "school": "RENAISSANCE WEST", "school_typ": "ELEMENTARY", "address": "3241 New Renaissance Way", "city": "Charlotte", "zipcode": 28208, "magnet": "Non Magnet", "grdlevl": "PreK-5", "x": 1426279.00711225, "y": 536143.99516204989, "mag_focus": null, "schl_stat": "Current" }, "geometry": { "type": "Point", "coordinates": [ -80.920825276565779, 35.207910587509659 ] } },
{ "type": "Feature", "properties": { "objectid": 133, "school_num": 5518, "school": "RIDGE ROAD", "school_typ": "MIDDLE", "address": "7260 Highland Creek Parkway", "city": "Charlotte", "zipcode": 28269, "magnet": "Non Magnet", "grdlevl": "6-8", "x": 1474854.99427767, "y": 596569.99340431008, "mag_focus": null, "schl_stat": "Current" }, "geometry": { "type": "Point", "coordinates": [ -80.761818237243332, 35.376386411677636 ] } },
{ "type": "Feature", "properties": { "objectid": 134, "school_num": 4590, "school": "RIVER GATE", "school_typ": "ELEMENTARY", "address": "15340 Smith Road", "city": "Charlotte", "zipcode": 28273, "magnet": "Non Magnet", "grdlevl": "K-5", "x": 1408653.0056189201, "y": 492719.99638030998, "mag_focus": null, "schl_stat": "Current" }, "geometry": { "type": "Point", "coordinates": [ -80.976926999383451, 35.087666676277756 ] } },
{ "type": "Feature", "properties": { "objectid": 135, "school_num": 4463, "school": "RIVER OAKS ACADEMY", "school_typ": "ELEMENTARY", "address": "1015 Mt. Holly-Huntersville Road", "city": "Charlotte", "zipcode": 28214, "magnet": "Non Magnet", "grdlevl": "K-5", "x": 1409727.0001900801, "y": 573033.99716932001, "mag_focus": null, "schl_stat": "Current" }, "geometry": { "type": "Point", "coordinates": [ -80.97868856057309, 35.30835885672623 ] } },
{ "type": "Feature", "properties": { "objectid": 136, "school_num": 5509, "school": "QUAIL HOLLOW", "school_typ": "MIDDLE", "address": "2901 Smithfield Church Road", "city": "Charlotte", "zipcode": 28210, "magnet": "Partial", "grdlevl": "6-8", "x": 1445682.00702009, "y": 501403.99344796996, "mag_focus": "International Baccalaureate", "schl_stat": "Current" }, "geometry": { "type": "Point", "coordinates": [ -80.853707612477507, 35.113486364620378 ] } },
{ "type": "Feature", "properties": { "objectid": 137, "school_num": 8482, "school": "NORTHWEST SCHOOL OF THE ARTS", "school_typ": "HIGH", "address": "1415 Beatties Ford Road", "city": "Charlotte", "zipcode": 28216, "magnet": "Non Magnet", "grdlevl": "9-12", "x": 1445880.0007185799, "y": 553578.99506889004, "mag_focus": null, "schl_stat": "Current" }, "geometry": { "type": "Point", "coordinates": [ -80.856307961842631, 35.256832040914865 ] } },
{ "type": "Feature", "properties": { "objectid": 138, "school_num": 4409, "school": "PARKSIDE", "school_typ": "ELEMENTARY", "address": "2945 Johnston-Oehler Road", "city": "Charlotte", "zipcode": 28269, "magnet": "Non Magnet", "grdlevl": "K-5", "x": 1474991.9985968301, "y": 590898.99687230994, "mag_focus": null, "schl_stat": "Current" }, "geometry": { "type": "Point", "coordinates": [ -80.7610212215084, 35.360813914869546 ] } },
{ "type": "Feature", "properties": { "objectid": 139, "school_num": 7457, "school": "ROCKY RIVER", "school_typ": "HIGH", "address": "10505 Clear Creek Commerce Drive", "city": "Mint Hill", "zipcode": 28227, "magnet": "Non Magnet", "grdlevl": "9-12", "x": 1510096.9979405, "y": 536896.99792113993, "mag_focus": null, "schl_stat": "Current" }, "geometry": { "type": "Point", "coordinates": [ -80.640299053402572, 35.21410991786383 ] } },
{ "type": "Feature", "properties": { "objectid": 140, "school_num": 5520, "school": "SEDGEFIELD", "school_typ": "MIDDLE", "address": "2700 Dorchester Place", "city": "Charlotte", "zipcode": 28209, "magnet": "Non Magnet", "grdlevl": "6-8", "x": 1445738.0003464099, "y": 531749.99837264, "mag_focus": null, "schl_stat": "Current" }, "geometry": { "type": "Point", "coordinates": [ -80.855416920299106, 35.196856358110672 ] } },
{ "type": "Feature", "properties": { "objectid": 141, "school_num": 4522, "school": "SELWYN", "school_typ": "ELEMENTARY", "address": "2840 Colony Road", "city": "Charlotte", "zipcode": 28211, "magnet": "Non Magnet", "grdlevl": "K-5", "x": 1451699.0064690001, "y": 521053.99581455998, "mag_focus": null, "schl_stat": "Current" }, "geometry": { "type": "Point", "coordinates": [ -80.834805071961625, 35.167776569657399 ] } },
{ "type": "Feature", "properties": { "objectid": 142, "school_num": 4527, "school": "SHAMROCK GARDENS", "school_typ": "ELEMENTARY", "address": "3301 Country Club Drive", "city": "Charlotte", "zipcode": 28205, "magnet": "Partial", "grdlevl": "K-5", "x": 1465993.9936269999, "y": 544881.99737106008, "mag_focus": "Learning Immersion & Talent Development", "schl_stat": "Current" }, "geometry": { "type": "Point", "coordinates": [ -80.788415995612425, 35.2339541634434 ] } },
{ "type": "Feature", "properties": { "objectid": 143, "school_num": 4530, "school": "SHARON", "school_typ": "ELEMENTARY", "address": "4330 Foxcroft Road", "city": "Charlotte", "zipcode": 28211, "magnet": "Non Magnet", "grdlevl": "K-5", "x": 1456811.0028066598, "y": 515595.99655998003, "mag_focus": null, "schl_stat": "Current" }, "geometry": { "type": "Point", "coordinates": [ -80.817368093747845, 35.153040547854751 ] } },
{ "type": "Feature", "properties": { "objectid": 144, "school_num": 4534, "school": "SMITHFIELD", "school_typ": "ELEMENTARY", "address": "3200 Smithfield Church Road", "city": "Charlotte", "zipcode": 28210, "magnet": "Non Magnet", "grdlevl": "K-5", "x": 1446364.0056560801, "y": 500210.99845864001, "mag_focus": null, "schl_stat": "Current" }, "geometry": { "type": "Point", "coordinates": [ -80.851353063048734, 35.11024389475056 ] } },
{ "type": "Feature", "properties": { "objectid": 145, "school_num": 5537, "school": "SOUTH CHARLOTTE", "school_typ": "MIDDLE", "address": "8040 Strawberry Lane", "city": "Charlotte", "zipcode": 28277, "magnet": "Non Magnet", "grdlevl": "6-8", "x": 1461814.9967356601, "y": 492774.99922307004, "mag_focus": null, "schl_stat": "Current" }, "geometry": { "type": "Point", "coordinates": [ -80.799246024787891, 35.090595904098919 ] } },
{ "type": "Feature", "properties": { "objectid": 146, "school_num": 7535, "school": "SOUTH MECKLENBURG", "school_typ": "HIGH", "address": "8900 Park Road", "city": "Charlotte", "zipcode": 28210, "magnet": "Partial", "grdlevl": "9-12", "x": 1443929.00691716, "y": 500005.99821246997, "mag_focus": "World Languages", "schl_stat": "Current" }, "geometry": { "type": "Point", "coordinates": [ -80.859480922230944, 35.109555665398275 ] } },
{ "type": "Feature", "properties": { "objectid": 147, "school_num": 5538, "school": "SOUTHWEST", "school_typ": "MIDDLE", "address": "13624 Steele Creek Road", "city": "Charlotte", "zipcode": 28273, "magnet": "Non Magnet", "grdlevl": "6-8", "x": 1404619.002204, "y": 499900.99645399, "mag_focus": null, "schl_stat": "Current" }, "geometry": { "type": "Point", "coordinates": [ -80.990890816980581, 35.107172600680506 ] } },
{ "type": "Feature", "properties": { "objectid": 148, "school_num": 4545, "school": "STARMOUNT ACADEMY", "school_typ": "ELEMENTARY", "address": "1600 Brookdale Avenue", "city": "Charlotte", "zipcode": 28205, "magnet": "Non Magnet", "grdlevl": "K-5", "x": 1440827.0055752499, "y": 511036.99878821999, "mag_focus": null, "schl_stat": "Current" }, "geometry": { "type": "Point", "coordinates": [ -80.870546421429481, 35.139700181383667 ] } },
{ "type": "Feature", "properties": { "objectid": 149, "school_num": 4546, "school": "STATESVILLE ROAD", "school_typ": "ELEMENTARY", "address": "5521 Milhaven Lane", "city": "Charlotte", "zipcode": 28269, "magnet": "Partial", "grdlevl": "K-5", "x": 1449027.82742816, "y": 567783.54671222996, "mag_focus": "International Baccalaureate", "schl_stat": "Current" }, "geometry": { "type": "Point", "coordinates": [ -80.846650255931408, 35.296015652688318 ] } },
{ "type": "Feature", "properties": { "objectid": 150, "school_num": 4549, "school": "STEELE CREEK", "school_typ": "ELEMENTARY", "address": "4100 Gallant Lane", "city": "Charlotte", "zipcode": 28273, "magnet": "Non Magnet", "grdlevl": "K-5", "x": 1415499.0001290001, "y": 517860.99826356996, "mag_focus": null, "schl_stat": "Current" }, "geometry": { "type": "Point", "coordinates": [ -80.955701807805781, 35.157105890284448 ] } },
{ "type": "Feature", "properties": { "objectid": 151, "school_num": 4550, "school": "STERLING", "school_typ": "ELEMENTARY", "address": "9601 China Grove Church Road", "city": "Pineville", "zipcode": 28134, "magnet": "Non Magnet", "grdlevl": "K-5", "x": 1436311.0001715901, "y": 499394.99615363998, "mag_focus": null, "schl_stat": "Current" }, "geometry": { "type": "Point", "coordinates": [ -80.884910347774635, 35.10748235613049 ] } },
{ "type": "Feature", "properties": { "objectid": 152, "school_num": 4521, "school": "STONEY CREEK", "school_typ": "ELEMENTARY", "address": "14015 Mallard Roost Road", "city": "Charlotte", "zipcode": 28262, "magnet": "Non Magnet", "grdlevl": "K-5", "x": 1485483.9986101701, "y": 586137.99950457003, "mag_focus": null, "schl_stat": "Current" }, "geometry": { "type": "Point", "coordinates": [ -80.72555782000677, 35.348240802816008 ] } },
{ "type": "Feature", "properties": { "objectid": 153, "school_num": 4553, "school": "THOMASBORO ACADEMY", "school_typ": "MIDDLE", "address": "538 Bradford Drive", "city": "Charlotte", "zipcode": 28208, "magnet": "Non Magnet", "grdlevl": "6-8", "x": 1433239.00565942, "y": 553302.99824556999, "mag_focus": null, "schl_stat": "Current" }, "geometry": { "type": "Point", "coordinates": [ -80.898627476927999, 35.255416973401701 ] } },
{ "type": "Feature", "properties": { "objectid": 154, "school_num": 4553, "school": "THOMASBORO ACADEMY", "school_typ": "ELEMENTARY", "address": "538 Bradford Drive", "city": "Charlotte", "zipcode": 28208, "magnet": "Non Magnet", "grdlevl": "K-5", "x": 1433239.00565942, "y": 553302.99824556999, "mag_focus": null, "schl_stat": "Current" }, "geometry": { "type": "Point", "coordinates": [ -80.898627476927999, 35.255416973401701 ] } },
{ "type": "Feature", "properties": { "objectid": 155, "school_num": 4557, "school": "TORRENCE CREEK", "school_typ": "ELEMENTARY", "address": "14550 Ranson Road", "city": "Huntersville", "zipcode": 28078, "magnet": "Non Magnet", "grdlevl": "K-5", "x": 1442086.00076066, "y": 610170.99376132002, "mag_focus": null, "schl_stat": "Current" }, "geometry": { "type": "Point", "coordinates": [ -80.872590688549295, 35.412101994867982 ] } },
{ "type": "Feature", "properties": { "objectid": 156, "school_num": 4435, "school": "LINCOLN HEIGHTS MONTESSORI", "school_typ": "ELEMENTARY", "address": "1900 New Castle Street", "city": "Charlotte", "zipcode": 28216, "magnet": "Full", "grdlevl": "PreK-6", "x": 1436124.0041545001, "y": 587434.99887905992, "mag_focus": "Montessori", "schl_stat": "Current" }, "geometry": { "type": "Point", "coordinates": [ -80.842334315258498, 35.258941811276635 ] } },
{ "type": "Feature", "properties": { "objectid": 157, "school_num": 4562, "school": "TUCKASEEGEE", "school_typ": "ELEMENTARY", "address": "2028 Little Rock Road", "city": "Charlotte", "zipcode": 28214, "magnet": "Partial", "grdlevl": "K-5", "x": 1420264.0033942501, "y": 551467.9966662199, "mag_focus": "Learning Immersion & Talent Development", "schl_stat": "Current" }, "geometry": { "type": "Point", "coordinates": [ -80.941961969135676, 35.249686366804724 ] } },
{ "type": "Feature", "properties": { "objectid": 158, "school_num": 4566, "school": "UNIVERSITY MEADOWS", "school_typ": "ELEMENTARY", "address": "1600 Pavilion Boulevard", "city": "Charlotte", "zipcode": 28262, "magnet": "Non Magnet", "grdlevl": "PreK-6", "x": 1488565.99310233, "y": 574153.99263273005, "mag_focus": null, "schl_stat": "Current" }, "geometry": { "type": "Point", "coordinates": [ -80.714529571564299, 35.315464974401394 ] } },
{ "type": "Feature", "properties": { "objectid": 159, "school_num": 4565, "school": "UNIVERSITY PARK", "school_typ": "ELEMENTARY", "address": "2400 Hildebrand Street", "city": "Charlotte", "zipcode": 28216, "magnet": "Full", "grdlevl": "K-5", "x": 1445042.0033788199, "y": 555091.99926071998, "mag_focus": "Visual & Performing Arts", "schl_stat": "Current" }, "geometry": { "type": "Point", "coordinates": [ -80.859209519149971, 35.260945439632479 ] } },
{ "type": "Feature", "properties": { "objectid": 160, "school_num": 4593, "school": "VILLA HEIGHTS", "school_typ": "ELEMENTARY", "address": "800 Everett Place", "city": "Charlotte", "zipcode": 28205, "magnet": "Non Magnet", "grdlevl": "K-5", "x": 1458742.0045220901, "y": 546045.99799581, "mag_focus": null, "schl_stat": "Current" }, "geometry": { "type": "Point", "coordinates": [ -80.812769092495984, 35.236790517145607 ] } },
{ "type": "Feature", "properties": { "objectid": 161, "school_num": 7312, "school": "W.A. HOUGH", "school_typ": "HIGH", "address": "12420 Bailey Road", "city": "Cornelius", "zipcode": 28031, "magnet": "Non Magnet", "grdlevl": "9-12", "x": 1455708.00632499, "y": 630310.99514789996, "mag_focus": null, "schl_stat": "Current" }, "geometry": { "type": "Point", "coordinates": [ -80.828124838459999, 35.468125794052391 ] } },
{ "type": "Feature", "properties": { "objectid": 162, "school_num": 4574, "school": "WALTER G. BYERS", "school_typ": "MIDDLE", "address": "1415 Hamilton Street ", "city": "Charlotte", "zipcode": 28206, "magnet": "Partial", "grdlevl": "6-8", "x": 1450292.0017370898, "y": 548790.99906748999, "mag_focus": "STEM", "schl_stat": "Current" }, "geometry": { "type": "Point", "coordinates": [ -80.841233668295928, 35.243904296102158 ] } },
{ "type": "Feature", "properties": { "objectid": 163, "school_num": 4574, "school": "WALTER G. BYERS", "school_typ": "ELEMENTARY", "address": "1415 Hamilton Street", "city": "Charlotte", "zipcode": 28206, "magnet": "Non Magnet", "grdlevl": "K-5", "x": 1450292.0017370898, "y": 548790.99906748999, "mag_focus": "STEM", "schl_stat": "Current" }, "geometry": { "type": "Point", "coordinates": [ -80.841233668295928, 35.243904296102158 ] } },
{ "type": "Feature", "properties": { "objectid": 164, "school_num": 7576, "school": "WEST CHARLOTTE", "school_typ": "HIGH", "address": "2219 Senior Drive", "city": "Charlotte", "zipcode": 28216, "magnet": "Partial", "grdlevl": "9-12", "x": 1445295.00713791, "y": 556774.99327005004, "mag_focus": "International Baccalaureate", "schl_stat": "Current" }, "geometry": { "type": "Point", "coordinates": [ -80.858467654764496, 35.265581929341003 ] } },
{ "type": "Feature", "properties": { "objectid": 165, "school_num": 7579, "school": "WEST MECKLENBURG", "school_typ": "HIGH", "address": "7400 Tuckaseegee Road", "city": "Charlotte", "zipcode": 28214, "magnet": "Non Magnet", "grdlevl": "9-12", "x": 1416989.00403875, "y": 550652.99960856, "mag_focus": null, "schl_stat": "Current" }, "geometry": { "type": "Point", "coordinates": [ -80.952875812638041, 35.24727094545333 ] } },
{ "type": "Feature", "properties": { "objectid": 166, "school_num": 4577, "school": "WESTERLY HILLS", "school_typ": "ELEMENTARY", "address": "4420 Denver Avenue", "city": "Charlotte", "zipcode": 28208, "magnet": "Non Magnet", "grdlevl": "K-5", "x": 1429345.00032409, "y": 544924.99728507001, "mag_focus": null, "schl_stat": "Current" }, "geometry": { "type": "Point", "coordinates": [ -80.91112875987929, 35.232195998046656 ] } },
{ "type": "Feature", "properties": { "objectid": 167, "school_num": 5317, "school": "WHITEWATER", "school_typ": "MIDDLE", "address": "10201 Running Rapids Road", "city": "Charlotte", "zipcode": 28214, "magnet": "Partial", "grdlevl": "6-8", "x": 1405600.0054913298, "y": 564140.99395797995, "mag_focus": "Environmental Sustainability", "schl_stat": "Current" }, "geometry": { "type": "Point", "coordinates": [ -80.991921088331566, 35.283702229078749 ] } },
{ "type": "Feature", "properties": { "objectid": 168, "school_num": 4318, "school": "WHITEWATER ACADEMY", "school_typ": "ELEMENTARY", "address": "11600 White Rapids Road", "city": "Charlotte", "zipcode": 28214, "magnet": "Non Magnet", "grdlevl": "K-5", "x": 1406029.0003682501, "y": 563942.99304165004, "mag_focus": null, "schl_stat": "Current" }, "geometry": { "type": "Point", "coordinates": [ -80.99047054863118, 35.283181944242799 ] } },
{ "type": "Feature", "properties": { "objectid": 169, "school_num": 4586, "school": "WINDING SPRINGS", "school_typ": "ELEMENTARY", "address": "6601 Horace Mann Road", "city": "Charlotte", "zipcode": 28269, "magnet": "Non Magnet", "grdlevl": "K-5", "x": 1454451.00654241, "y": 571502.99596622994, "mag_focus": null, "schl_stat": "Current" }, "geometry": { "type": "Point", "coordinates": [ -80.828707589866511, 35.306509419595422 ] } },
{ "type": "Feature", "properties": { "objectid": 170, "school_num": 4587, "school": "WINDSOR PARK", "school_typ": "ELEMENTARY", "address": "3910 Sudbury Road", "city": "Charlotte", "zipcode": 28205, "magnet": "Non Magnet", "grdlevl": "K-5", "x": 1474441.9934632501, "y": 540791.99374007003, "mag_focus": null, "schl_stat": "Current" }, "geometry": { "type": "Point", "coordinates": [ -80.759886380597948, 35.223132809377368 ] } },
{ "type": "Feature", "properties": { "objectid": 171, "school_num": 4588, "school": "WINGET PARK", "school_typ": "ELEMENTARY", "address": "12235 Winget Road", "city": "Charlotte", "zipcode": 28278, "magnet": "Partial", "grdlevl": "K-5", "x": 1401929.0043031599, "y": 508533.99657640001, "mag_focus": "STEM", "schl_stat": "Current" }, "geometry": { "type": "Point", "coordinates": [ -81.000465100806693, 35.130740220439527 ] } },
{ "type": "Feature", "properties": { "objectid": 172, "school_num": 4589, "school": "WINTERFIELD", "school_typ": "ELEMENTARY", "address": "3100 Winterfield Place", "city": "Charlotte", "zipcode": 28205, "magnet": "Non Magnet", "grdlevl": "K-5", "x": 1472249.99850342, "y": 535358.99771630997, "mag_focus": null, "schl_stat": "Current" }, "geometry": { "type": "Point", "coordinates": [ -80.766901167799048, 35.208100077286055 ] } },
{ "type": "Feature", "properties": { "objectid": 173, "school_num": 7592, "school": "JULIUS L CHAMBERS", "school_typ": "HIGH", "address": "7600 IBM Drive", "city": "Charlotte", "zipcode": 28262, "magnet": "Non Magnet", "grdlevl": "9-12", "x": 1472035.99630675, "y": 568887.9929941399, "mag_focus": null, "schl_stat": "Current" }, "geometry": { "type": "Point", "coordinates": [ -80.769618363436791, 35.300201175722769 ] } },
{ "type": "Feature", "properties": { "objectid": 174, "school_num": 5341, "school": "iMECK ACADEMY AT COCHRANE", "school_typ": "HIGH", "address": "6200 Starhaven Drive", "city": "Charlotte", "zipcode": 28215, "magnet": "Full", "grdlevl": "9-12", "x": 1477458.9923505001, "y": 549224.99754331005, "mag_focus": "Blended & Virtual Learning", "schl_stat": "Current" }, "geometry": { "type": "Point", "coordinates": [ -80.750283597377404, 35.246446821226222 ] } },
{ "type": "Feature", "properties": { "objectid": 175, "school_num": 4515, "school": "RENAISSANCE WEST", "school_typ": "MIDDLE", "address": "3241 New Renaissance Way", "city": "Charlotte", "zipcode": 28208, "magnet": "Non Magnet", "grdlevl": "6-7", "x": 1426279.00711225, "y": 536143.99516204989, "mag_focus": null, "schl_stat": "Current" }, "geometry": { "type": "Point", "coordinates": [ -80.920825276565779, 35.207910587509659 ] } },
{ "type": "Feature", "properties": { "objectid": 176, "school_num": 4483, "school": "SOUTH PINE ACADEMY", "school_typ": "ELEMENTARY", "address": "2541 Sandy Porter Road", "city": "Charlotte", "zipcode": 28273, "magnet": "Non Magnet", "grdlevl": "K-5", "x": 1418609.230129, "y": 510266.92683756002, "mag_focus": null, "schl_stat": "Current" }, "geometry": { "type": "Point", "coordinates": [ -80.944800139595756, 35.136411556275313 ] } },
{ "type": "Feature", "properties": { "objectid": 177, "school_num": 7327, "school": "PALISADES", "school_typ": "HIGH", "address": "14947 York Road", "city": "Charlotte", "zipcode": 27278, "magnet": "Non Magnet", "grdlevl": "9-12", "x": 1395588.15051508, "y": 494461.25798965001, "mag_focus": null, "schl_stat": "Current" }, "geometry": { "type": "Point", "coordinates": [ -81.020710488248625, 35.091727433592276 ] } },
{ "type": "Feature", "properties": { "objectid": 178, "school_num": 4596, "school": "ESPERANZA GLOBAL ACADEMY", "school_typ": "ELEMENTARY", "address": "5932 Farm Pond Lane", "city": "Charlotte", "zipcode": 28212, "magnet": "Non Magnet", "grdlevl": "K-5", "x": 1480192.0006639999, "y": 531400.00071306992, "mag_focus": null, "schl_stat": "Current" }, "geometry": { "type": "Point", "coordinates": [ -80.740084647286537, 35.197609159922997 ] } },
{ "type": "Feature", "properties": { "objectid": 179, "school_num": 4595, "school": "MINT HILL", "school_typ": "ELEMENTARY", "address": "11615 Idlewild Road", "city": "Matthews", "zipcode": 28105, "magnet": "Non Magnet", "grdlevl": "K-4", "x": 1492523.4166179202, "y": 514226.55868204997, "mag_focus": null, "schl_stat": "Current" }, "geometry": { "type": "Point", "coordinates": [ -80.69782965448573, 35.151015602412841 ] } },
{ "type": "Feature", "properties": { "objectid": 180, "school_num": 4425, "school": "GROVE PARK", "school_typ": "ELEMENTARY", "address": "7515 The Plaza", "city": "Charlotte", "zipcode": 28215, "magnet": "Non Magnet", "grdlevl": "K-5", "x": 1482805.4232586601, "y": 553962.08551006007, "mag_focus": null, "schl_stat": "Current" }, "geometry": { "type": "Point", "coordinates": [ -80.732655993671642, 35.259718408850823 ] } },
{ "type": "Feature", "properties": { "objectid": 181, "school_num": 7597, "school": "ELBERT EDWIN WADDELL", "school_typ": "HIGH", "address": "7030 Nations Ford Road", "city": "Charlotte", "zipcode": 28217, "magnet": "Choice Program", "grdlevl": "9-12", "x": 1432076.0001114202, "y": 516872.99991146999, "mag_focus": null, "schl_stat": "Current" }, "geometry": { "type": "Point", "coordinates": [ -80.900186810804769, 35.155276233534387 ] } },
{ "type": "Feature", "properties": { "objectid": 182, "school_num": 7594, "school": "MERANCAS MIDDLE COLLEGE AT CPCC", "school_typ": "HIGH", "address": "11930 Verhoeff Drive", "city": "Charlotte", "zipcode": 28078, "magnet": "School Option", "grdlevl": "11-13", "x": 1451500.0003053199, "y": 602975.99568415002, "mag_focus": "Early & Middle Colleges", "schl_stat": "Current" }, "geometry": { "type": "Point", "coordinates": [ -80.840553054867826, 35.392820333689976 ] } },
{ "type": "Feature", "properties": { "objectid": 183, "school_num": 4304, "school": "REA FARMS", "school_typ": "ELEMENTARY", "address": "11532 Golf Links Drive", "city": "Charlotte", "zipcode": 28277, "magnet": "Full", "grdlevl": "K-5", "x": 1467656.6648423399, "y": 479503.64256373001, "mag_focus": "STEM", "schl_stat": "Current" }, "geometry": { "type": "Point", "coordinates": [ -80.778925548757528, 35.054425032859861 ] } },
{ "type": "Feature", "properties": { "objectid": 184, "school_num": 4306, "school": "NORTH ACADEMY OF WORLD LANGUAGES", "school_typ": "ELEMENTARY", "address": "12201 Hambright Rd", "city": "Huntersville", "zipcode": 28078, "magnet": "Full", "grdlevl": "K-8", "x": 1453205.6182851598, "y": 597558.43860589003, "mag_focus": "World Languages", "schl_stat": "Current" }, "geometry": { "type": "Point", "coordinates": [ -80.834495066491158, 35.378024397176645 ] } },
{ "type": "Feature", "properties": { "objectid": 185, "school_num": 4304, "school": "REA FARMS", "school_typ": "MIDDLE", "address": "11532 Golf Links Drive", "city": "Charlotte", "zipcode": 28277, "magnet": "Partial", "grdlevl": "6-8", "x": 1467656.6648423399, "y": 479503.64256373001, "mag_focus": "STEM", "schl_stat": "Current" }, "geometry": { "type": "Point", "coordinates": [ -80.778925548757528, 35.054425032859861 ] } },
{ "type": "Feature", "properties": { "objectid": 186, "school_num": 7569, "school": "CHARLOTTE TEACHER EARLY COLLEGE", "school_typ": "HIGH", "address": "9000 Robert D. Snyder Road", "city": "Charlotte", "zipcode": 28262, "magnet": "School Option", "grdlevl": "9-13", "x": 1479717.9927537402, "y": 571907.99285965005, "mag_focus": "Early & Middle Colleges", "schl_stat": "Current" }, "geometry": { "type": "Point", "coordinates": [ -80.744053208331323, 35.308871256877055 ] } },
{ "type": "Feature", "properties": { "objectid": 187, "school_num": 7498, "school": "CENTRAL PIEDMONT EARLY COLLEGE", "school_typ": "HIGH", "address": "1228 Elizabeth Avenue", "city": "Charlotte", "zipcode": 28204, "magnet": "Choice Program", "grdlevl": "9-12", "x": 1453328.9999281599, "y": 538664.99996257003, "mag_focus": "Early & Middle Colleges", "schl_stat": "Current" }, "geometry": { "type": "Point", "coordinates": [ -80.830438324942591, 35.216240479175603 ] } },
{ "type": "Feature", "properties": { "objectid": 188, "school_num": 7499, "school": "CHARLOTTE-MECKLENBURG VIRTUAL", "school_typ": "HIGH", "address": "7030 Nations Ford Road", "city": "Charlotte", "zipcode": 28216, "magnet": "Full", "grdlevl": "6-12", "x": 1432076.0001113, "y": 516872.99991140002, "mag_focus": "Blended & Virtual Learning", "schl_stat": "Current" }, "geometry": { "type": "Point", "coordinates": [ -80.900186810804769, 35.155276233534387 ] } },
{ "type": "Feature", "properties": { "objectid": 189, "school_num": 4387, "school": "KNIGHTS VIEW", "school_typ": "ELEMENTARY", "address": "11000 Beau Riley Road", "city": "Charlotte", "zipcode": 28277, "magnet": "Non Magnet", "grdlevl": "K-4", "x": 1452946.0006941699, "y": 469930.99996364, "mag_focus": null, "schl_stat": "Current" }, "geometry": { "type": "Point", "coordinates": [ -80.827484149184016, 35.027392084935954 ] } },
{ "type": "Feature", "properties": { "objectid": 190, "school_num": 7536, "school": "BALLANTYNE RIDGE", "school_typ": "HIGH", "address": "4004 Toringdon Way", "city": "Charlotte", "zipcode": 28277, "magnet": "Non Magnet", "grdlevl": "9-11", "x": 1450068.53827325, "y": 486397.68684648001, "mag_focus": null, "schl_stat": "Current" }, "geometry": { "type": "Point", "coordinates": [ -80.838112807252543, 35.072484470268321 ] } },
{ "type": "Feature", "properties": { "objectid": 191, "school_num": 4303, "school": "CHARLOTTE EAST LANGUAGE ACADEMY", "school_typ": "ELEMENTARY", "address": "6108 Wilora Lake Road", "city": "Charlotte", "zipcode": 28212, "magnet": "Full", "grdlevl": "K-8", "x": 1477971.5779394999, "y": 535685.66766664002, "mag_focus": "World Languages", "schl_stat": "Current" }, "geometry": { "type": "Point", "coordinates": [ -80.747768646025065, 35.209275808729046 ] } },
{ "type": "Feature", "properties": { "objectid": 192, "school_num": 4438, "school": "LANSDOWNE", "school_typ": "ELEMENTARY", "address": "7200 Folger Drive", "city": "Charlotte", "zipcode": 28270, "magnet": "Partial", "grdlevl": "K-5", "x": 1467290.9926734101, "y": 511778.99631998001, "mag_focus": "International Baccalaureate", "schl_stat": "Current" }, "geometry": { "type": "Point", "coordinates": [ -80.782083220127078, 35.143076323576587 ] } },
{ "type": "Feature", "properties": { "objectid": 193, "school_num": 4367, "school": "DILWORTH", "school_typ": "ELEMENTARY", "address": "405 E Park Avenue", "city": "Charlotte", "zipcode": 28203, "magnet": "Non Magnet", "grdlevl": "K-5", "x": 1447008.0004310801, "y": 537005.99835930998, "mag_focus": null, "schl_stat": "Current" }, "geometry": { "type": "Point", "coordinates": [ -80.851494652624936, 35.21136079269408 ] } },
{ "type": "Feature", "properties": { "objectid": 194, "school_num": 4492, "school": "SEDGEFIELD MONTESSORI", "school_typ": "ELEMENTARY", "address": "715 Hartford Avenue", "city": "Charlotte", "zipcode": 28209, "magnet": "Full", "grdlevl": "PreK-6", "x": 1443215.0060485802, "y": 529444.99740522995, "mag_focus": "Montessori", "schl_stat": "Current" }, "geometry": { "type": "Point", "coordinates": [ -80.863715918324544, 35.190394203117179 ] } },
{ "type": "Feature", "properties": { "objectid": 195, "school_num": 4475, "school": "DOROTHY J. VAUGHAN ACADEMY OF TECHNOLOGY", "school_typ": "ELEMENTARY", "address": "8601 Old Concord Road", "city": "Charlotte", "zipcode": 28213, "magnet": "Partial", "grdlevl": "K-5", "x": 1482673.99537191, "y": 563366.99386556004, "mag_focus": "STEM", "schl_stat": "Current" }, "geometry": { "type": "Point", "coordinates": [ -80.733646387617171, 35.285549552463088 ] } },
{ "type": "Feature", "properties": { "objectid": 196, "school_num": 5555, "school": "SOUTH CHARLOTTE RELIEF", "school_typ": "MIDDLE", "address": "5410 Camp Verde Ln", "city": "Charlotte", "zipcode": 28227, "magnet": "Non Magnet", "grdlevl": "6-8", "x": 1463920.44068739, "y": 479150.89786231995, "mag_focus": null, "schl_stat": "Future" }, "geometry": { "type": "Point", "coordinates": [ -80.79138685675531, 35.053271337308033 ] } }
]
}
